business_id,name,neighborhood,address,city,state,postal_code,latitude,longitude,stars,review_count,is_open,categories
9A2quhZLyWk0akUetBd8hQ,Bnc Cake House,Koreatown,631 Bloor St W,Toronto,ON,M6G 1K8,43.6643776,-79.4144238,4,7,0,"Food, Bakeries"
tZnSodhPwNr4bzrwJ1CSbw,Southern Accent Restaurant,Palmerston,595 Markham Street,Toronto,ON,M6G 2L7,43.6641249,-79.4118861,4,146,0,"Cajun/Creole, Southern, Restaurants"
5J3b7j3Fzo9ISjChmoUoUA,Mabel's Bakery,Wychwood,746 Street Clair Avenue W,Toronto,ON,M6C 1B5,43.6813277,-79.4278838,4,23,1,"Food, Bakeries, Coffee & Tea"
PMDlKLd0Mxj0ngCpuUmE5Q,The Coffee Mill Restaurant,Yorkville,99 Yorkville Avenue,Toronto,ON,M5R 3K5,43.6708846,-79.3923788,3.5,25,0,"Restaurants, Food, Canadian (New), Coffee & Tea"
zHwXoh40k86P0aiN1aix9Q,Super 8 by Wyndham Toronto East ON,Scarborough,3280 Kingston Road,Toronto,ON,M1M 1P8,43.7333951,-79.224205799999993,2,3,1,"Hotels, Hotels & Travel, Event Planning & Services"
wv9KN5x8L2qzKFq_6Hzf9g,Legislative Assembly of Ontario,Discovery District,1 Queens Park Crescent E,Toronto,ON,M5S,43.6619640179,-79.3912587147,4.5,3,1,"Public Services & Government, Landmarks & Historical Buildings"
RJEtBRLJmmji_QoqS6ysjg,Royal Conservatory of Music,University of Toronto,273 Bloor Street W,Toronto,ON,M5S 1W2,43.6677486,-79.3961666,4.5,3,1,"Music Venues, Arts & Entertainment, Nightlife"
YIez_A3WOt9J2SXN7OMa2Q,Allwyn's Bakery,,81 Underhill Drive,Toronto,ON,M3A 1K8,43.7459284,-79.3246225,4,105,1,"Caribbean, Food, Bakeries, Restaurants"
xuUzASHWjRJRFv6Ck5pO7g,Fornetti,Financial District,"Richmond Adelaide Centre, 120 Adelaide St W",Toronto,ON,M5H 3V1,43.6499721,-79.3832232,3.5,3,0,"Food, Bakeries"
mr3rQcYBKWu2L6o7qtQ9Wg,Hub Coffee House & Locavorium,Christie Pits,1028 Shaw St,Toronto,ON,M6G 3N2,43.6691157,-79.4260211,4,31,0,"Restaurants, Food, Coffee & Tea, Breakfast & Brunch"
Q_cfbLdAxkLiEZW5TO5T6A,More Than Pies Baking,Etobicoke,3469 Lake Shore Boulevard W,Toronto,ON,M8W 1N2,43.5951494,-79.5299771,4,9,1,"Food, Bakeries"
Ea5a2Ov4s_D3Vx4j7jkEEg,Shoppers Drug Mart,,550 Eglinton Avenue W,Toronto,ON,M5N 0A1,43.703344498,-79.4154372029,1,3,1,"Drugstores, Shopping"
cuXCQM-9VwpZlSneEY1b3w,Indian Street Food Company,Mount Pleasant and Davisville,1701 Bayview Avenue,Toronto,ON,M4G 3C1,43.708002,-79.375814,3.5,51,1,"Nightlife, Wine Bars, Indian, Restaurants, Bars"
hsWx7ya8jLMhi8ZWX23Thg,Harvey's Restaurants,Yonge and Eglinton,49 Eglinton Ave East,Toronto,ON,M4P 1G6,43.7069830501,-79.3964988202,2,5,1,"American (Traditional), Burgers, Fast Food, Restaurants"
DcyeRzICLrMkrPpJDzjQ6Q,Honey's Beestro,The Beach,"2383 Queen Street E, Unit 2379",Toronto,ON,M4E 1H5,43.6741639265,-79.2873923228,2,6,0,"Nightlife, Bars, Restaurants, Canadian (New), Pubs"
UXbeKSeE9IElaThfRGIQ0w,Dog Care Wonderland,Willowdale,5496 Yonge St,Toronto,ON,M2N 7L3,43.7781622,-79.415482,1,4,1,"Pet Services, Pets, Pet Sitting, Pet Stores, Pet Groomers"
lBzZKw6FYxbin9de9GAhTQ,Affordable Textiles,Queen Street West,531 Queen Street W,Toronto,ON,M5V 2B4,43.6480029,-79.3991983,3.5,15,1,"Fabric Stores, Shopping, Arts & Crafts"
i2Fd0dl39BZ8nVxBnSPsKg,Anchor Bar,Etobicoke,636 Dixon Road,Toronto,ON,M9W 1J1,43.6910854,-79.5755866,3,38,1,"Salad, Chicken Wings, Sandwiches, Pizza, Restaurants"
2j5hnwYzS-YLJn6IFqloCw,I Wings,Queen Street West,404 Queen Street W,Toronto,ON,M5V 2A6,43.6486781,-79.3972345,3.5,4,0,"Restaurants, Pizza, Chicken Wings"
_T8qy9XAKAFLJdmoLg1Q-g,Burrito Boyz,Willowdale,5314 Yonge Street,Toronto,ON,M2N,43.7729924508,-79.4140518612,4,121,1,"Mexican, Restaurants"
FI6XxleZ6Z1xJ9BS4zLKgQ,Chan Yang,Willowdale,"5 Northtown Way, Unit 7",Toronto,ON,M2N 7A1,43.7743736325,-79.4140428131,3.5,3,1,"Asian Fusion, Taiwanese, Restaurants"
Bw_rDtU2REt7ZlkPWT21kg,Sunny Foodmart,Etobicoke,1620 Albion Road,Toronto,ON,M9V 4B4,43.7420185,-79.5910764,4,4,1,"Ethnic Food, Specialty Food, Imported Food, Food, Grocery"
2tg7rpwAbrex81bMKOnOtQ,Loblaws,,11 Redway Road,Toronto,ON,M4H 1P6,43.6990972,-79.3597232,2,10,1,"Food, Grocery"
McKxaJL3dhq7i4oHa9IwKg,A'dore Nail Bar,Dufferin Grove,861 College Street,Toronto,ON,M6H 1A1,43.6541178,-79.42355,3,7,1,"Beauty & Spas, Nail Salons"
vwVoksbTKehDP8ZGUQaVfQ,Sweet Mahal,Etobicoke,"680 Rexdale Boulevard, Unit 9",Toronto,ON,M9W 0B5,43.7210775,-79.6137669,3.5,25,1,"Restaurants, Food, Indian"
AoItX6upESFG_EowRa05eg,Ave Maria Latin Café,Koreatown,631 Bloor Street W,Toronto,ON,M6G 1K8,43.6643448,-79.4143913,4.5,27,1,"Coffee & Tea, Grocery, Latin American, Restaurants, Food"
WwGG-NPpxyyAB_H4UdyBbA,Proper Barbers,Kensington Market,73 Kensington Avenue,Toronto,ON,M5T 2K2,43.6545234,-79.4005358,4,15,1,"Beauty & Spas, Barbers, Hair Salons"
Omn2qqVcTpH9J883EVhQ7g,Quesada Mexican Grill,The Annex,200 Bloor St W,Toronto,ON,M5S,43.6685637,-79.3954589,2.5,16,0,"Mexican, Restaurants"
Gv8u5bX_Kd7HG7jkeF_vWA,Ten Feet Tall,The Danforth,1381 Danforth Avenue,Toronto,ON,M4J 1N2,43.6822547,-79.3280136,3,5,0,"Cafes, Arts & Entertainment, Music Venues, Nightlife, Restaurants"
3YKV1eralyrKQqoWOTJMDA,Giulietta,Dufferin Grove,972 College Street W,Toronto,ON,M6H 1A5,43.6535007,-79.427609,4.5,12,1,"Italian, Restaurants"
Fi3x4W9PjynIEvAYOrOzdQ,"Sarah Watson, RMT",Greektown,475 Danforth Avenue,Toronto,ON,M4K 1P1,43.677867,-79.350024,5,3,1,"Health & Medical, Massage, Beauty & Spas, Massage Therapy, Physical Therapy"
G4TJIm3bho3Hb3K2usIo4Q,Brooklyn Furniture Importers,,3742 Bathurst Street,Toronto,ON,M3H 3M4,43.7367236,-79.4341663,3.5,6,1,"Shopping, Mattresses, Home & Garden, Baby Gear & Furniture, Furniture Stores"
ZP_1K8uC-YGbdPQ0KfNJog,Folly Brewpub,Dufferin Grove,928 College Street,Toronto,ON,M6H 1A4,43.6537193,-79.4258332,4,24,1,"Brewpubs, Gastropubs, Nightlife, Food, Bars, Breweries, Restaurants"
p7vvL9T6iXiL7c9I2gPGEA,Lindt Boutique Toronto - The Path,Financial District,"130 King Street W, Units CL5, CL6, CL7",Toronto,ON,M5X 1A9,43.64842,-79.3819,4,7,1,"Specialty Food, Candy Stores, Chocolatiers & Shops, Food, Desserts"
xS5Tg_H9GBEyOTWl9JwhvA,Latin World,Bloordale Village,1229 Bloor Street W,Toronto,ON,M6H 1N6,43.6586437,-79.4408403,4,25,1,"Restaurants, Specialty Food, Food, Latin American, Ethnic Food, Imported Food"
YSBOJuLA70d6s1fAWBjbAA,Galaxy T&T,Bloordale Village,1227A Bloor Street West,Toronto,ON,M6H 1N6,43.6586622,-79.4407564,5,5,1,"Specialty Food, Sandwiches, Juice Bars & Smoothies, Restaurants, Food, Fruits & Veggies, Vietnamese"
EBzr465prEffkpmE8Mk5AA,Polish'd Nail Bar,Financial District,"Adelaide Centre, 130 Adelaide St West Concourse Level",Toronto,ON,M5H 3P5,43.649592,-79.383394,2.5,7,1,NA
RBSM11yZ5X-oi_mFULZH_w,Dress Code by Ciao Bella,Downtown Core,462 Yonge Street,Toronto,ON,M4Y,43.6618003845,-79.383605957,2,3,1,"Women's Clothing, Fashion, Shopping"
mHdichTxwzXI7n7lWNCj0Q,iTech Wireless,,2019 Avenue Road,Toronto,ON,M5M 4A5,43.7354496,-79.4198638,3.5,5,1,"IT Services & Computer Repair, Mobile Phone Repair, Local Services"
ITy0inRPpnKa_4ent9Y0oA,Dr. Scott Gillanders,Church-Wellesley Village,2 Carlton Street,Toronto,ON,M5B 1J3,43.6616782,-79.3828415,5,3,1,"Dentists, General Dentistry, Health & Medical"
SS0zUU0cUkQd1Lp_h3tgaQ,Hero Certified Burgers - Bloor & Bathurst,Palmerston,"571 Bloor St. W., Unit 1",Toronto,ON,M6G 1K3,43.6649625542,-79.4113332276,3,19,0,"Restaurants, Burgers"
b0la3LqC0mIlBVlQDyMyTQ,The Wing Company,Christie Pits,858 Bloor Street W,Toronto,ON,M6G 1M4,43.6623822,-79.4243452,3,34,0,"Restaurants, Food Delivery Services, Food, Burgers, Chicken Wings"
YA7kPicnPFqd_gydw0SOjw,Presse Café,Discovery District,875 Bay Street,Toronto,ON,M5S 3K6,43.662622,-79.3863994,3.5,10,1,"Cafes, Coffee & Tea, Restaurants, Food"
YkAIlxYZ1guSqbbowU9X4g,Luckee,Entertainment District,328 Wellington Street W,Toronto,ON,M5V 3T4,43.6446974,-79.3923951,3.5,171,1,"Restaurants, Chinese, Dim Sum, Breakfast & Brunch"
DM6SwVs5ksGe9mWKO94Q0A,The Painted Lady,Ossington Strip,218 Ossington Avenue,Toronto,ON,M6J 2Z9,43.6491122,-79.4209542,3.5,51,1,"Lounges, Nightlife, Arts & Entertainment, Event Planning & Services, Bars, Music Venues, Venues & Event Spaces, Pubs"
D_VpAGPNEde64N0CwXMkiw,The Second Cup,Riverdale,355 Danforth Avenue,Toronto,ON,M4K 1N7,43.6772213,-79.3529116,3.5,10,1,"Food, Coffee & Tea"
sYKB4nITCLLFcCZPn3QECQ,Teppan Kenta,Downtown Core,"24 Wellesley W, Unit 1",Toronto,ON,M4Y 2X6,43.665279,-79.385945,3.5,58,0,"Japanese, Restaurants, Food"
ii_zDR8crbQVJehMMWoCkQ,Marathon Donuts & Coffee Shop,Milliken,"3300 Midland Ave, Unit 32",Toronto,ON,M1V,43.8067504,-79.2888581,4,76,1,"Donuts, Food, Coffee & Tea"
4SQvBWjDh_eUx_10M-eigA,Lan Restaurant,Riverdale,755 Queen Street E,Toronto,ON,M4M 1H3,43.6591967,-79.3479061,3.5,34,1,"Restaurants, Vietnamese"
oLzApuB8Smdi48ArtTtZOQ,Wise Guys Deluxe Grill & Bar,The Danforth,2301 Ave Danforth,Toronto,ON,M4C 1K5,43.6869015,-79.3075378,2.5,3,0,"Bars, Nightlife, Dive Bars"
lLujm0yuar140PoNMDqStA,Alexandra Dry Cleaners,,2716 Yonge Street,Toronto,ON,M4N 2H9,43.7176325,-79.4008505,2.5,3,1,"Local Services, Laundry Services, Dry Cleaning, Dry Cleaning & Laundry"
QoXT0qI6_3WeHImUuLAyjg,The George Street Diner,Corktown,129 George Street,Toronto,ON,M5A 2M6,43.6530078233,-79.3714184956,3.5,110,1,"Restaurants, Breakfast & Brunch, Diners"
reVvDQpFsI7UeAdFsMctwA,K&M Barber Shop,Etobicoke,3545 Lakeshore Boulevard W,Toronto,ON,M8W 1P4,43.5942809,-79.5329919,3.5,3,1,"Beauty & Spas, Barbers, Hair Salons"
webM3oChwDCkzZEmjrSeHQ,The Croissant Tree,Church-Wellesley Village,625 Church Street,Toronto,ON,M4Y 2G1,43.6695736876,-79.3823492115,3.5,52,1,"Restaurants, Food, Sandwiches, Caterers, Breakfast & Brunch, Coffee & Tea, Event Planning & Services"
eIcTq4cwZjkj6-99vyjotw,Dr. Martens,Queen Street West,391 Queen Street W,Toronto,ON,M5V 2A5,43.6489694,-79.39434,3.5,11,1,"Shoe Stores, Fashion, Shopping"
xsZ0KFE1Kno01buap9DuxQ,Bennett Cleaners,Leslieville,1047 Gerrard Street E,Toronto,ON,M4M 1Z7,43.6689389,-79.3362796,2.5,3,1,"Laundry Services, Dry Cleaning & Laundry, Local Services"
uO0isEg1fCvL0BqfDRbVjA,Godiva Chocolatier,,3401 Dufferin Street,Toronto,ON,M6A,43.7247752,-79.4553801,3.5,4,1,"Desserts, Food"
Uyn8Ku6w9fRTmZ0nHds0OQ,Summerhill Spa,Yorkville,154 Cumberland Street,Toronto,ON,M5R 1A8,43.6700794,-79.3932896,3.5,26,1,"Beauty & Spas, Nail Salons, Day Spas"
cA5DOLBmD_XoNmgj7e3caA,Fox and Fiddle Yorkmills,,865 York Mills Road,Toronto,ON,M3B 1Y6,43.7547555,-79.3499924,3,47,1,"Bars, Canadian (New), Music Venues, Arts & Entertainment, Nightlife, Restaurants, Pubs"
_fe36eepp9tsP5vzvKbdQA,Furama Cake & Dessert Garden,Financial District,100 King St W,Toronto,ON,M5X 1A9,43.6486362,-79.3817439,3.5,17,1,"Food, Bakeries"
GrHRFIQIcZzQH172M0L_YA,Rejuvederme Medical Aesthetics,Yorkville,110 Yorkville Avenue,Toronto,ON,M5R 3K5,43.670948,-79.3928349,2.5,9,1,"Health & Medical, Medical Spas, Beauty & Spas"
nNuEYw5HuEKSyJFyVkjuYg,Harry Rosen,Downtown Core,"Eaton Centre, 218 Yonge Street",Toronto,ON,M5B 2H6,43.6528924618,-79.3798386678,4,12,1,"Accessories, Shopping, Men's Clothing, Fashion, Formal Wear"
8zJAGhUZEh836P-E-mGiMw,Phoenix Concert Theatre,,410 Sherbourne St,Toronto,ON,M4X 1K2,43.6647275,-79.3741718,3,60,1,"Nightlife, Music Venues, Arts & Entertainment"
NRD1gU-iPCYQMZFVfyfi8A,Cumberland Shoe Repair,Yorkville,2 Bloor Street W,Toronto,ON,M4W 3E2,43.6704097,-79.3872779,4,3,1,"Local Services, Shoe Repair"
42-UJ-c_97IeqUc6BWjmnA,Pho 88,,"900 Don Mills Road, Unit 9",Toronto,ON,M3C 1V6,43.7268982,-79.3420715,2.5,66,1,"Restaurants, Thai, Vietnamese"
gt-U8EfMzQsWjGtXS6wt0w,The Nite Owl - Brockton,Brockton Village,1695 Dundas Street W,Toronto,ON,M6K 1V2,43.6498594104,-79.4378175,4.5,3,1,"Barbers, Beauty & Spas"
fMhTgEHAssaJmwhA-E3RLw,Vera Wang,The Annex,38 Avenue Road,Toronto,ON,M5R 2E3,43.6703971,-79.3950228,2.5,13,1,"Bridal, Shopping, Women's Clothing, Fashion"
Vmm_RKD3Mq_wezuCxkAt6A,Chartwell Shopping Centre,Scarborough,2301 Brimley Road,Toronto,ON,M1S 5B8,43.7977079,-79.2722368,3.5,6,1,"Shopping, Shopping Centers"
zrQlLZLhToH4IHi8jCcbdQ,Diesel Playhouse,Entertainment District,56 Blue Jays Way,Toronto,ON,M5V 2G3,43.6454458,-79.3923588,3.5,3,1,"Arts & Entertainment, Performing Arts"
Jy96qxfFFH4Wa-KhkmwSMw,La Paloma Gelateria & Cafe,,1357 Saint Clair Aveune W,Toronto,ON,M6E 1C5,43.6759283,-79.4508751,4,68,1,"Food, Ice Cream & Frozen Yogurt"
5DnIECDn54PCOCLksrsD3w,Dirty Minds Comedy Dinner Theatre,,292 College Street,Toronto,ON,M5T 1R9,43.6577564,-79.4013373,2.5,3,1,"Comedy Clubs, Nightlife"
iQ6ydwCOKHlz8BPpJpj2Zg,Yummi Café Laundromat,,956 Saint Clair Avenue W,Toronto,ON,M6E 1A1,43.6796762,-79.4361019,3,4,1,"Restaurants, Local Services, Laundromat, Event Planning & Services, Venues & Event Spaces, Dry Cleaning & Laundry, Laundry Services, Cafes"
pC9g9aNF9mGV3jGo0xdYSA,Artemano - Don Mills,,"1090 Don Mills Road, Unit N012A",Toronto,ON,M3C 3R6,43.7364416,-79.344201,2.5,10,0,"Home Decor, Shopping, Home Services, Home & Garden, Lighting Fixtures & Equipment, Kitchen & Bath, Furniture Stores"
qWWVizgVxBaXXbE8Y-7-qA,Pizza Pizza,Yonge and Eglinton,2295 Yonge Street,Toronto,ON,M4P 2C6,43.7076725,-79.3981607,2.5,14,1,"Pizza, Restaurants"
TVDsSTurM58zneq_q_ZNOA,Monica's Nails & Spa,Scarborough,2085 Lawrence Avenue E,Toronto,ON,M1R 2Z4,43.745727,-79.292741,3.5,8,1,"Nail Salons, Beauty & Spas, Day Spas"
bUO8dz-qFbjglu2dF_6-zw,Toronto BJJ,Bickford Park,813 Bloor Street W,Toronto,ON,M6G 1L8,43.6625624,-79.4217661,4,10,1,"Specialty Schools, Education, Active Life, Sporting Goods, Fitness & Instruction, Martial Arts, Shopping"
hrfjA0CiLRbSqHysvi9DAw,Cinderella Vintage,Kensington Market,56B Kensington Avenue,Toronto,ON,M5T 2K1,43.6541958,-79.4004964,2.5,3,1,"Shopping, Thrift Stores"
tOcYmewXFhQeZh3V42ymwg,Kudlow and McCann Professional,Yonge and St. Clair,"21 St Clair Avenue E, Suite 401",Toronto,ON,M4T 1L9,43.6882141,-79.3927559,3.5,3,1,"Professional Services, Tax Services, Accountants, Financial Services"
kniu06ep57Y8kwW3mEwv9g,Gorgeous Lady Nail Salon,Yorkville,128-1/2 Cumberland St,Toronto,ON,M5R 1A6,43.670245799999996,-79.3922381,3.5,6,1,"Nail Salons, Beauty & Spas"
l3lAJgkvY8Az8Nftc-UQPw,Archery Circuit,Scarborough,3791 Victora Park Avenue,Toronto,ON,M1W,43.8097261,-79.3384229,4.5,15,1,"Active Life, Archery"
jWRq5lrEinxZPzbMIeVecQ,Natural Beauty Nails,The Annex,"362 Bloor Street W, 2nd Floor",Toronto,ON,M5S 1X6,43.6664844,-79.4058478,3,9,1,"Nail Salons, Beauty & Spas"
k28OVH_iA7vI5dPtfNH2Zw,Manhattan Classic Grill,,3200 Dufferin St,Toronto,ON,M6A 3B2,43.7186121,-79.4559215,3,4,0,"Steakhouses, Restaurants"
wk6aHP-vxv9dhmmJVDWnPg,Crews & Tangos,Church-Wellesley Village,508 Church Street,Toronto,ON,M4Y 2C8,43.6641925,-79.3805449,3,66,1,"Gay Bars, Nightlife, Bars"
neBW0IYhxkj9zE7R4TA3BQ,Chipotle Mexican Grill,Etobicoke,"25 The W Mall, Unit F012",Toronto,ON,M9C 1B8,43.6129820927,-79.5583543809,1.5,10,1,"Fast Food, Mexican, Restaurants"
429xxwcg4BzVeViCcwa3aA,Murale,,4 Aggie Hogg Gardens,Toronto,ON,M3C 0G6,43.7345391535,-79.3459670934,4,14,1,"Beauty & Spas, Shopping, Cosmetics & Beauty Supply"
E9K1wSwr-3y7TIaVaoa-9g,Irish Potato Nachos,Downtown Core,213 Church St,Toronto,ON,M5B 1Y7,43.655554,-79.376572,3,4,0,"Irish, Specialty Food, Food, Restaurants"
P-9hu1K0p1Zs5immScVM4w,Gerry's Shoe Repair,Downtown Core,700 University Ave,Toronto,ON,M7A,43.6590858,-79.3914771,3,7,1,"Local Services, Shoe Repair"
th925nxccD-YDAItCM6roQ,Social Dance Spot,Corso Italia,1209 Saint Clair Avenue W,Toronto,ON,M6E 1B5,43.6775355,-79.4445408,4.5,4,1,"Dance Clubs, Active Life, Dance Studios, Nightlife, Fitness & Instruction"
xZkEavhjO4r-6D1QS9aAgg,Gadabout,Leslieville,1300 Queen Street E,Toronto,ON,M4L 1C4,43.6638137,-79.3282785,4,8,1,"Used, Vintage & Consignment, Antiques, Shopping, Fashion"
wL5yGvlL1zXZ4EPJ8d0hIA,Rolltation,Yonge and Eglinton,2291 Yonge Street,Toronto,ON,M4P 2C6,43.7075497,-79.398122,4,73,1,"Sushi Bars, Food, Poke, Restaurants, Asian Fusion, Fast Food"
zqRmOmO38SLmv3fmeoK3hA,Amnesia Bar & Grill,The Annex,526 Bloor Street W,Toronto,ON,M5S 1Y3,43.6653031,-79.4104383,3,11,1,"Bars, Nightlife, Dive Bars"
DQf63-KJ25m-kDIMto614g,Saving Grace,Trinity Bellwoods,907 Dundas Street W,Toronto,ON,M6J 1V9,43.6508652,-79.4124287,3.5,184,1,"Restaurants, Breakfast & Brunch"
JPhR4VIN_FeKDJb4H-F1nA,Intact Insurance,Downtown Core,700 University Avenue,Toronto,ON,M5G 0A1,43.6588089,-79.3909892,3,3,1,"Insurance, Financial Services"
C4IiygusgzhVTTqK_DgQrw,Emkiro Health Services,Downtown Core,"70 University Avenue, Ste 120",Toronto,ON,M5J 2M4,43.6466123,-79.3847471,3,30,1,"Sports Medicine, Massage, Medical Centers, Doctors, Massage Therapy, Health & Medical, Acupuncture, Beauty & Spas, Chiropractors, Physical Therapy"
-f0dN_Ky8yF2mfMoaU4qtg,Media Bar,Entertainment District,77 Peter Street,Toronto,ON,M5V 2G4,43.6466802,-79.3924822,3.5,5,0,"Nightlife, Dance Clubs"
eQtjMhbIJ0pg6SqiQGRu9g,The Cookbook Store,Yorkville,850 Yonge Street,Toronto,ON,M4W 2H1,43.6718426,-79.3876081,4,6,0,"Newspapers & Magazines, Shopping, Bookstores, Books, Mags, Music & Video"
NrFsdILQztHSlIUNra82nQ,Juice Box,Church-Wellesley Village,491 Church St,Toronto,ON,M4Y 2C6,43.6651873,-79.3805874,5,12,1,"Juice Bars & Smoothies, Food"
wCvwfvtvrPPRssBqpgYlhg,Rosedale Subway Station,Summer Hill,1009 Yonge St,Toronto,ON,M4W 1S9,43.6769328402,-79.3894714491,3.5,3,1,"Hotels & Travel, Transportation, Public Transportation"
nyM76RUyFzekHHmYEU-KBQ,Eat Fresh Be Healthy,Downtown Core,185 Dundas Street W,Toronto,ON,M5G 1C7,43.6549946,-79.3866757,4,172,0,"Indian, Restaurants, Italian"
SWY3zdYqwn6JfDQLL0zL9A,Structure Salon and Spa,Queen Street West,173 Spadina Ave,Toronto,ON,M5T,43.6492605,-79.3961587,3.5,3,1,"Waxing, Day Spas, Hair Removal, Hair Salons, Beauty & Spas, Nail Salons"
ryF2_VC8OSNoe3VlA3bbkw,Shogun Japanese Restaurant,Yorkville,154 Cumberland St,Toronto,ON,M5R 1A8,43.6700794,-79.3932896,3.5,51,1,"Japanese, Restaurants, Sushi Bars"
BQw0uzOsgTZ_FhyEaFqFdw,The Glam,Etobicoke,2453 Lakeshore Boulevard W,Toronto,ON,M8V 1C5,43.6135211,-79.4894362,3.5,3,1,"Nail Salons, Eyelash Service, Beauty & Spas"
bE85F7GbIscq3Fqu8ghWWA,Beauty Lounge Salon & Spa,,"1500 Bathurst Street, Unit 5",Toronto,ON,M5P 3L3,43.6841058,-79.4190283,4.5,9,1,"Hair Salons, Day Spas, Hair Removal, Waxing, Beauty & Spas, Skin Care"
AN4rUuONoLimXU6DhrT4sQ,Foot Locker,Downtown Core,218 Yonge Street,Toronto,ON,M5B 2H6,43.653224,-79.3803279,1,3,1,"Shoe Stores, Shopping, Fashion"
aTvzqD5Kot4vp3vOnDyrTw,Messini Authentic Gyros Yonge Eglinton,Yonge and Eglinton,2311 Yonge Street,Toronto,ON,M4R 2H1,43.7078026,-79.3985359,3.5,82,0,"Restaurants, Greek"
YDqXkXVkoRxXoXH9aEZGLg,South China Herbs Market,Chinatown,493 Dundas Street W,Toronto,ON,M5T 1H1,43.65291,-79.3975229,4,4,1,"Specialty Food, Herbs & Spices, Health Markets, Food"
0l90vjr4wWhBypxnWXuuhg,Yves Rocher,Downtown Core,220 Yonge st,Toronto,ON,M5B 2L7,43.653929,-79.3802132,2.5,6,1,"Beauty & Spas, Cosmetics & Beauty Supply, Shopping"
MkiwqZEiF7035iOkUFHp1g,Moskito Bite,Kensington Market,423 College Street,Toronto,ON,M5T 1S9,43.6564272,-79.4070847,3.5,5,0,"Nightlife, Dance Clubs"
wGpspVUf7VAAGZ8PViGr_g,Eurolite,,"200 Queens Quay E, Suite 6",Toronto,ON,M5A 4K9,43.6462692,-79.3631878,3,4,1,"Shopping, Lighting Fixtures & Equipment, Home Services, Home & Garden"
oICXzFAaUMrYGzjRWmkw4Q,Anh Dao,Chinatown,383 Spadina Avenue,Toronto,ON,M5T 2G6,43.656345,-79.3989615,3.5,85,1,"Asian Fusion, Vietnamese, Restaurants"
yENVQfQhSljHGz-BbHHKQg,Farm Fresh Mart,Scarborough,4466 Sheppard Ave E,Toronto,ON,M1S 1V2,43.7887023,-79.2667077,3,10,1,"Grocery, Food"
cM0KcsT6iSJ4-ERiWZrbig,Senses Spa,Downtown Core,"Sheraton Centre Toronto Hotel, 123 Queen Street W",Toronto,ON,M5H 3M9,43.6511809,-79.3844646,3,11,1,"Beauty & Spas, Day Spas, Massage"
tgjbQEtZ_bvQBJOlfiK1OA,Mideastro Yorkville,Yorkville,27 Yorkville Avenue,Toronto,ON,M4W 1L4,43.6715509,-79.3888742,3.5,28,0,"Mediterranean, Middle Eastern, Italian, Restaurants"
B13_8wxUtqlnPKA4BCE7GQ,Studio Brillantine,Parkdale,1518 Queen Street W,Toronto,ON,M6R 1A4,43.6403542,-79.4386714,3.5,8,1,"Shopping, Accessories, Fashion, Kitchen & Bath, Gift Shops, Flowers & Gifts, Home Decor, Toy Stores, Home & Garden"
sTigKodOrD_HIdcZ8msGJw,Sunset Grill Restaurant,The Danforth,1602 Danforth Ave,Toronto,ON,M4C 1H6,43.6836027,-79.3230886,3,32,1,"Restaurants, Breakfast & Brunch, Diners"
prPzWXNUJKZGnzVYqxRLsw,Cafe Pleiade,Mount Pleasant and Davisville,557 Mount Pleasant Road,Toronto,ON,M4S 2M5,43.7031107,-79.3876981,3.5,7,1,"French, Cafes, Mediterranean, Restaurants"
h0TKP2PK0QaAqvqdILU1Vg,The Gaslight,The Junction,1426 Bloor Street W,Toronto,ON,M6P 3L4,43.6572335,-79.4480427,4.5,17,1,"Pubs, Bars, Nightlife, Cocktail Bars, Food"
ivWqUfAW6tTJxfH4WO5wgQ,Scarborough Centre Station,Scarborough,290 Borough Drive,Toronto,ON,M1P,43.7739087,-79.2533629,3,4,1,"Hotels & Travel, Public Transportation, Transportation"
G7FRxL25QFiuVxUeTmKXjQ,Paul's Tomato Pie,,1 Romar Crescent,Toronto,ON,M6B 1R7,43.7061727,-79.4424164,4,4,0,"Italian, Restaurants, Pizza"
gcec09O3lhUrzqXNJq0QVQ,Karbouzi,,2048 Avenue Road,Toronto,ON,M5M 4A6,43.736206,-79.4203754,3.5,14,1,"Greek, Restaurants"
dG5gkQBQNDU0lNTSvlcZNw,Cyclemotive,Niagara,156 Bathurst Street,Toronto,ON,M5V 2R3,43.6460244,-79.4039413,3.5,20,1,"Bikes, Sporting Goods, Shopping"
_x5oSMpXGEoAPz8eePn0VQ,Hair Code,Riverdale,743 Queen Street E,Toronto,ON,M4M 1H4,43.6590547,-79.3483378,4.5,20,1,"Hair Salons, Beauty & Spas"
jPsYewglXykobaR7F14Ykw,The Broadview Hotel,Riverdale,106 Broadview Avenue,Toronto,ON,M4M 2G1,43.6591061,-79.350019,3,65,1,"Event Planning & Services, Hotels & Travel, Hotels"
14m4FbWr2BIgrbSdPBKG8Q,Debu's Indian Cuisine,Kensington Market,291 Augusta Ave,Toronto,ON,M5T 2M2,43.6563207,-79.4025622,3.5,6,0,"Restaurants, Indian"
6a7zecn8W8r9dDWwQVb6aA,Novecento,Corso Italia,1228 Saint Clair Avenue W,Toronto,ON,M6E 1B7,43.6775605,-79.4451386,4.5,7,0,"Restaurants, Italian"
OxcElFZf-RLEaBhVjk9zjw,Karen's Fine Jewellry,Brockton Village,900 Dufferin Street,Toronto,ON,M6H 4A9,43.6560132,-79.4352469,2.5,3,1,"Jewelry, Shopping"
8XvFbCR-hGOepqasw1gN4Q,Cards and Presents,Queen Street West,245 Queen Street W,Toronto,ON,M5V 1Z4,43.6503677,-79.388723,4,5,0,"Event Planning & Services, Flowers & Gifts, Jewelry, Accessories, Cards & Stationery, Fashion, Shopping, Arts & Crafts"
UKpmaMZU_sKevo9AlaMPkA,Greyhound Bus Lines,Downtown Core,610 Bay St,Toronto,ON,M5G 1M5,43.6561507,-79.3842642,2,50,1,"Transportation, Hotels & Travel, Public Transportation"
QJhwQcFKtBn8EahP58nh1w,The Grind House,Kensington Market,281 Augusta Ave,Toronto,ON,M5T 2M1,43.6558987,-79.4025509,3.5,19,0,"Cafes, Restaurants"
3dGLMkZbSS9g6u6dwr4cJg,Toronto Island Marina,Harbourfront,"Basin A, Inner Harbour Area, Toronto Island",Toronto,ON,M5J 2G4,43.6411209106,-79.3768692017,4.5,5,1,"Active Life, Boating"
NNs2v3f6FIdZ7cSu3LRaHw,Euro Shawarma,Downsview,2706 Keele Street,Toronto,ON,M3M 3G5,43.7257250991,-79.4820323753,4,50,1,"Restaurants, Turkish"
3iq7mvnwfYlOmdzENYolng,Hutaoli Music Restaurant & Bar,Scarborough,2900 Warden Avenue,Toronto,ON,M1W 2S8,43.7986682795,-79.3181378541,3.5,18,1,"Chinese, Bars, Nightlife, Restaurants"
uLyeGUKKi_hDlnhEEqsDPA,Midoco Art & Office Supplies,,555 Bloor Street W,Toronto,ON,M5S 1Y6,43.6650594,-79.4104068,4,47,1,"Art Supplies, Shopping, Office Equipment, Arts & Crafts"
sMjp-FVZ8a3ymXUTtiZ7pQ,Beaches Animal Hospital,The Beach,2304 Queen Street E,Toronto,ON,M4E 1G8,43.6734377,-79.2837077,4,14,1,"Pets, Veterinarians, Pet Sitting, Pet Services, Emergency Pet Hospital"
AsGc0FZh5tObNR0pnSitiQ,Shoppers drug mart,Scarborough,1400 Neilson Road,Toronto,ON,M1B 0C2,43.8089713902,-79.2233090606,3.5,3,1,"Shopping, Beauty & Spas, Drugstores, Health & Medical, Cosmetics & Beauty Supply, Pharmacy"
sjJOsKnXxsQodXMr1i8fsg,CF Toronto Eaton Centre,Downtown Core,220 Yonge Street,Toronto,ON,M5B 2H1,43.654412959,-79.3808555603,3.5,253,1,"Shopping, Shopping Centers"
TYMcEGCe0csyQiELkL7bQQ,Rabba Fine Foods Stores,,40 Asquith Ave,Toronto,ON,M4W 1J6,43.6717411,-79.3849472,2,9,1,"Grocery, Food, Convenience Stores"
astpBnUjzZEQEAvgn_113Q,Mind Games Cafe,Yonge and Eglinton,2360 Yonge Street,Toronto,ON,M4P 2E6,43.7087233,-79.3987793,2,4,0,"Cafes, Shopping, Toy Stores, Hobby Shops, Restaurants"
b4X_JsxWcnoUNDH9dsW42w,Game Centre,Yorkville,730 Yonge Street,Toronto,ON,M4Y 2B7,43.6688657,-79.3869717,4,24,1,"Arcades, Shopping, Books, Mags, Music & Video, Toy Stores, Active Life, Music & DVDs, Electronics, Videos & Video Game Rental, Arts & Entertainment"
L72WIRqdDFgNhJSfw7k_Ow,Uptowne Dental Centre,Mount Pleasant and Davisville,245 Eglinton Ave E,Toronto,ON,M4P 3B7,43.7081764,-79.38957,3.5,3,1,"General Dentistry, Health & Medical, Dentists"
kl2kuAgGZ7tfi9kznMhQNA,Crimson Teas,Chinatown,415 Spadina Avenue,Toronto,ON,M5T 2G6,43.6570217,-79.3993567,4.5,23,1,"Food, Tea Rooms, Cafes, Restaurants"
2VtTzskzFcwVnXgGYsY1lQ,The Captain's Boil,Scarborough,4505 Sheppard Avenue E,Toronto,ON,M1S,43.787913,-79.264716,3.5,48,1,"Restaurants, Seafood, Asian Fusion, Cajun/Creole"
JeuwGHY3knsBKt3KegjqrQ,dip 'n dip,Swansea,2489 Bloor Street W,Toronto,ON,M6S 1R7,43.6476173,-79.486769,3.5,10,0,"Restaurants, Fondue, Desserts, Cafes, Food"
4U9hnKTGidPKOSu_28m9dA,Merci Mon Ami,Liberty Village,"171 E Liberty St, Unit 107",Toronto,ON,M6K 3P6,43.6381212285,-79.41900298,4,25,1,"Event Planning & Services, Restaurants, Canadian (New), Caterers"
qCTuGaciae73u7C57s2_0Q,Poonam Delite,The Danforth,2658 Danforth Avenue,Toronto,ON,M4C 1L4,43.6888991,-79.2995013,3.5,22,1,"Indian, Restaurants"
qqU3d8IpcIw2BJrsGxSL9Q,Schezuan Express,Downtown Core,Eaton's Centre,Toronto,ON,M5B 2H6,43.6544631,-79.3806653,2.5,7,1,"Restaurants, Chinese"
WwrKHFXpBqLQAkhmU01Xvw,Seoul House,,3220 Dufferin Street,Toronto,ON,M6A 2T2,43.7191707,-79.4558409,3,71,1,"Restaurants, Korean"
8al-XRt5nuIize8_STWffQ,King Slice,Beaconsfield Village,1130 Queen Street W,Toronto,ON,M6J,43.6431907,-79.4239029,3.5,53,1,"Restaurants, Pizza"
1En6jicM87DGevp-groNcg,Queens Quay Medspa and Anti-Aging Clinic,Harbourfront,"370 Queens Quay W, Suite 103",Toronto,ON,M5V 3J3,43.6387666,-79.38979,4,6,0,"Medical Spas, Hair Removal, Laser Hair Removal, Weight Loss Centers, Beauty & Spas, Health & Medical"
wHTPHng-wWg85AF_y8IDuQ,Feta & Olives,Downtown Core,595 Bay Street,Toronto,ON,M7A 2C7,43.6559041,-79.383606,3,6,1,"Restaurants, Food Stands"
GXix-iwZYUqTPOlw_2Hvbw,Herzig Eye Institute,Yorkville,"150 Bloor Street W, Suite 210",Toronto,ON,M5S 2X9,43.6693139,-79.393574,2,3,1,"Laser Eye Surgery/Lasik, Health & Medical, Ophthalmologists, Optometrists, Doctors"
e5Ut3UyuCV9rxhm2lRrXQg,Java Joes,Bloor-West Village,2312 Bloor Street W,Toronto,ON,M6S 1P2,43.6504938,-79.4797612,3,5,0,"Coffee & Tea, Food"
2AWznkiQwU7kEJ-fQtSvGA,King West Chiropractic Health Centre,Financial District,145 King Street W,Toronto,ON,M5H 1J8,43.6474734,-79.3839517,3.5,10,1,"Chiropractors, Acupuncture, Massage, Beauty & Spas, Massage Therapy, Health & Medical"
Rp7ABbhY8kUpgwrzJADnqw,Tim Horton's,Yonge and Eglinton,2245 Yonge Street,Toronto,ON,M4S 1S5,43.7063824,-79.3977847,2.5,10,1,"Food, Ice Cream & Frozen Yogurt, Restaurants, Breakfast & Brunch, Sandwiches, Coffee & Tea"
p6mnPa2-__9ttPTIfecc0Q,Subway,Riverdale,727 Queen Street E,Toronto,ON,M4M 1H1,43.6590216,-79.3491051,2.5,3,1,"Delicatessen, Food, Fast Food, Sandwiches, Restaurants"
aBV0ayr7xjjpn61tSe5-eA,Kind Exchange,Greektown,439 Danforth Avenue,Toronto,ON,M4C 1K1,43.677679,-79.3506115,3,10,1,"Shopping, Thrift Stores"
1E1BN1eJQX7j6EdepVxoMQ,Astra Meat Products,Bloor-West Village,2238 Bloor Street W,Toronto,ON,M6S 1N6,43.6511193,-79.4769534,3.5,11,0,"Sandwiches, Delis, Restaurants, Chicken Wings, Food, Specialty Food"
s_0zH6HExuWJeJjiZAtckA,CoCo Fresh Tea & Juice,Chinatown,371 Spadina Avenue,Toronto,ON,M5T 2G3,43.6557974,-79.3990465,3,32,1,NA
83SjzY1d3VitsAj5ogfvoA,Easy Moving Solutions,Lawrence Park,,Toronto,ON,M4N,43.7280205,-79.3887901,1,3,1,"Home Services, Movers"
Og37JqBjJDpFb6oIscyrtg,Krispy Kreme Cafe,Chinatown,400 Spadina Avenue,Toronto,ON,M5T 2G7,43.6558643159,-79.3994606115,4.5,23,1,"Donuts, Coffee & Tea, Food"
j9BZuqgGYb5PfA2ll_rc1Q,Nuvo Nails,,78 Esther Shiner Boulevard,Toronto,ON,M2K 2X9,43.7683839,-79.3711929,3.5,7,1,"Nail Salons, Hair Removal, Beauty & Spas, Waxing, Threading Services, Skin Care, Eyebrow Services"
9ekQwoJKee_P--FNri0C0Q,Fare Made Design,Kensington Market,"277 Augusta Avenue, 2nd Floor",Toronto,ON,M5V,43.6559148,-79.4023148,2,4,1,"Home Services, Professional Services, Graphic Design, Local Services, Interior Design, Marketing, Printing Services"
596Lq92Zii6LZz1ODjh81w,Dollarama,Church-Wellesley Village,543 Yonge Street,Toronto,ON,M4Y 1Y5,43.6643583,-79.3840676,2.5,4,1,"Discount Store, Shopping"
5sKb4h7R5gdhePSflPD0Tw,Kiku Japanese Cuisine,,808 York Mills Road,Toronto,ON,M3B 1X8,43.754089,-79.3579885,2.5,87,1,"Japanese, Restaurants, Event Planning & Services, Sushi Bars, Caterers"
UAXz2KC1aXpxzV-MLdXbmQ,Delhi Bistro,The Beach,2214 Queen Street E,Toronto,ON,M4E 1E9,43.6725772,-79.2885159,4,30,1,"Restaurants, Indian"
IZlRDHCBtT81hzRHi_GDbQ,Ying Ying Soy Food,St. Lawrence,"St. Lawrence Market South, 92 Front Street E, Lower Level",Toronto,ON,M5E 1C4,43.6496153,-79.3719866,4.5,8,1,"Specialty Food, Health Markets, Food, Organic Stores"
Eaz3glo_ZO9vpzlDvx8QFQ,The Store On Queen,Trinity Bellwoods,662 Queen Street W,Toronto,ON,M6J 1E5,43.6467127881,-79.4069701295,5,8,1,"Shopping, Women's Clothing, Fashion, Accessories"
mN-m1_wp_2yyepVb-W8frA,Pet Mama,,"1500 Bathurst Street, Unit 1",Toronto,ON,M5P 3L3,43.6841058,-79.4190283,5,3,1,"Pet Stores, Pets"
pOe045d08sWNYEMwD7q0Vg,Telegramme Prints and Custom Framing,Ossington Strip,194 Ossington Avenue,Toronto,ON,M6J 2Z7,43.6486125,-79.4206123,3.5,9,1,"Event Planning & Services, Flowers & Gifts, Cards & Stationery, Framing, Shopping, Arts & Crafts"
QkVDxEo5-_3EScH0cXKDfQ,KIBO Sushi & Tapas,Wychwood,701 Saint Clair Avenue W,Toronto,ON,M6C 1B2,43.6812098,-79.4264768,4,39,1,"Sushi Bars, Restaurants"
OQed6yRev3Jq6a-9BclpTQ,Road Grill Food Truck,Willowdale,,Toronto,ON,M2N 3K5,43.7679501,-79.402688,5,8,1,"Event Planning & Services, Food, Food Trucks, Caterers"
kBYBXh7M9wKXvHgluJWiLQ,Annie's Tea House,Scarborough,8 Glen Watford Drive,Toronto,ON,M1S 2C1,43.7868388044,-79.2769266665,4,10,1,"Bubble Tea, Food, Juice Bars & Smoothies, Food Stands, Restaurants"
Rajlfs4lENPrMn-7-2Yinw,Green Tea Design,Leslieville,388 Carlaw Ave,Toronto,ON,M4M 2T4,43.6657479,-79.3425119,3,5,1,"Shopping, Home & Garden, Antiques, Furniture Stores"
hPPXqoC04mKEDhUk2BVvSw,Pine On Bloor Ltd.,,403 Jane Street,Toronto,ON,M6S 3Z6,43.6585257,-79.4880898,2.5,3,1,"Furniture Stores, Interior Design, Home Services, Shopping, Home & Garden"
R194AJm2QrW-Ng9WSjM7IA,Clover Dry Cleaners,Corktown,120 Lombard Street,Toronto,ON,M5C 3H5,43.6525318,-79.3730424,1,3,1,"Local Services, Dry Cleaning & Laundry, Dry Cleaning, Laundry Services"
kIJn4DsRsj5RX4mSCkW3SQ,Adina Photo,,2 Homewood Avenue,Toronto,ON,M4Y 2J9,43.663103,-79.3746207,4.5,17,1,"Photographers, Gift Shops, Photography Stores & Services, Home Decor, Hotels & Travel, Shopping, Framing, Travel Services, Passport & Visa Services, Home & Garden, Flowers & Gifts, Event Planning & Services, Arts & Crafts, Local Services"
iiYBbwKedBYrh0mS4KFw8Q,Creatron,Chinatown,255 College Street,Toronto,ON,M5T 1R5,43.6579348,-79.3992696,4,5,0,"Shopping, Hobby Shops, Electronics"
96X4OwboB2qCLY7tQ20wMg,Rainforest Cafe,,3401 Dufferin St,Toronto,ON,M6A 2T9,43.7247752,-79.4553801,3,40,0,"American (Traditional), Restaurants"
JYxQqBLH3La0lj9ip83M-g,Eliot's Bookshop,Downtown Core,584 Yonge Street,Toronto,ON,M4Y 1Z3,43.6652522,-79.3848526,4,28,0,"Shopping, Books, Mags, Music & Video, Bookstores"
UZilBC8-jkGrR8y9AFrCgA,Maker Pizza,,1537 Avenue Rd,Toronto,ON,M5M 3X3,43.7229171,-79.4155643,4,12,1,"Pizza, Restaurants"
1DFrxjBLEKdFv1iHq8RBog,Byron Bikes,The Danforth,1712 Danforth Avenue,Toronto,ON,M4C 1H8,43.6842503,-79.3203964,3.5,3,1,"Local Services, Shopping, Bike Repair/Maintenance, Bikes, Sporting Goods"
MOVD-29ngGZYiMNQXbUBhA,Kennedy Bingo,Scarborough,991 Kennedy Road,Toronto,ON,M1P 2K5,43.7456052,-79.2728636,3.5,3,1,"Religious Organizations, Shopping, Hobby Shops, Synagogues, Social Clubs, Arts & Entertainment"
yuFdJdrnfMp3cfXVwTXjjA,Nakayoshi Izakaya,Greektown,812 Danforth Avenue,Toronto,ON,M4J 1L2,43.6796129,-79.3413385,3.5,50,1,"Japanese, Restaurants"
41o3MEJHzyBp3wADivMktQ,Canadian Tire,,1019 Sheppard Avenue E,Toronto,ON,M2K 1C2,43.7692165,-79.3715628,2.5,24,1,"Department Stores, Automotive, Shopping, Tires, Fashion"
vDretNqzo-0yqQkV5wOvbg,Placebo Space,New Toronto,2877 Lakeshore Boulevard W,Toronto,ON,M8V 1J1,43.6010168,-79.5034124,5,8,1,"Nightlife, Bars, Lounges, Food, Event Planning & Services, Real Estate, Shared Office Spaces, Arts & Entertainment, Home Services, Coffee & Tea, Music Venues, Venues & Event Spaces"
bmJR8xf47Bo7dMmJDockDQ,Second Nature Boutique,Mount Pleasant and Davisville,514 Mt Pleasant Road,Toronto,ON,M4S 2M2,43.7018541,-79.3876825,3,7,1,"Shopping, Accessories, Women's Clothing, Used, Vintage & Consignment, Fashion"
MRNktFjl623j9IZhxuEhSg,Cherry Blossom Dentistry,High Park,"2299 Dundas Street W, Suite 306",Toronto,ON,M6R 1X7,43.6555459,-79.452589,5,8,1,"Cosmetic Dentists, Health & Medical, General Dentistry, Dentists"
EeQX5XniQUu8fGWGhZ5DEQ,kate spade new york,,"3401 Dufferin St, Ste159",Toronto,ON,M6A 3A1,43.7247752,-79.4553801,4.5,4,1,"Women's Clothing, Shopping, Fashion"
RMkdS1LFJZyVixOU9zUAmA,Walking On A Cloud,Alexandra Park,2-593 Queen Street W,Toronto,ON,M5V 2B7,43.6476025,-79.4018982,3.5,3,1,"Shopping, Shoe Stores, Fashion"
5UnvurKePI8papEL2DJt6A,Planet Storage,The Junction,1655 Dupont Street,Toronto,ON,M6P 3T1,43.6646086,-79.4562774,3,3,1,"Local Services, Self Storage"
-cuzw1pcZ_UcdA4Qxc5YYg,Little Master,Willowdale,5369 Yonge Street,Toronto,ON,M2N 5R6,43.7758099,-79.414276,3.5,8,0,"Barbeque, Asian Fusion, Chinese, Restaurants"
y8rIT1NQIaHTlYpvx3d-yA,Fionn MacCool's,St. Lawrence,70 The Esplanade,Toronto,ON,M5E 1R2,43.6472986,-79.3736447,3,35,0,"Nightlife, Pubs, Bars"
NBXPDU6VBgg54BEr7s8WWQ,Ital Florist,Etobicoke,130 Westmore Drive,Toronto,ON,M9V 5E2,43.7358895,-79.6026236,1,3,1,"Flowers & Gifts, Shopping, Florists, Floral Designers, Custom Cakes, Food, Event Planning & Services, Gift Shops"
gULK714e4SMqag-FHLDLNw,Lindt & Sprungli Canada,Financial District,181 University Ave,Toronto,ON,M5H 3M7,43.6492365,-79.3853592,4.5,3,1,"Food, Specialty Food, Candy Stores"
Lyzr1uckXL0U-iBoMc0yfg,Makimono,Etobicoke,634 Dixon Road,Toronto,ON,M9W 1J1,43.6909078983,-79.575564784,3,50,1,"Restaurants, Sushi Bars"
_yGc7ca7SxPKMG6VjMVAbg,Green Mango,Bloor-West Village,2180 Bloor St W,Toronto,ON,M6S 1N3,43.6516825,-79.4743881,2,21,0,"Restaurants, Thai"
QXRsssSp0NjMSxRlvTfVIw,Melmira Bra & Swimsuits,,3319 Yonge Street,Toronto,ON,M4N 2L9,43.7307191449,-79.4035272345,4.5,26,1,"Swimwear, Lingerie, Women's Clothing, Fashion, Sporting Goods, Maternity Wear, Shopping"
OFbiUooV4CqLjrvdOBXz-A,Branca,Brockton Village,1727 Dundas Street W,Toronto,ON,M6K 1V4,43.6500835,-79.4389982,4,80,1,"Barbeque, Steakhouses, Argentine, Nightlife, Restaurants, Bars"
m4d2j487Y0DYgPs6nNGw_A,Ladybug Florist In the Village,Church-Wellesley Village,513 Church Street,Toronto,ON,M4Y 2C9,43.666173,-79.381002,4.5,51,1,"Florists, Flowers & Gifts, Shopping"
XESfvE2Yd7ZzjKNAJ4R_Ow,Prana Coffee,The Beach,2130A Queen St E,Toronto,ON,M4E 1E3,43.6713973,-79.2940969,4,4,0,"Coffee & Tea, Food"
o-k3cTwsXZ_NZp76M_WeLA,Preloved,Riverdale,230 Danforth Ave,Toronto,ON,M4K 1N2,43.6768383,-79.3555934,5,3,0,"Used, Vintage & Consignment, Fashion, Shopping, Women's Clothing"
hT5kvnJnBWzUWrSpqg3byg,The Sky Stars,Downtown Core,149 Dundas Street E,Toronto,ON,M5B 1E4,43.6566701,-79.3753603,5,3,1,"Burgers, Chicken Wings, Restaurants, Canadian (New)"
PgGHZLmxjNjw1ImCTNQ67A,Parkdale Home Hardware,Parkdale,1372 Queen Street W,Toronto,ON,M6K 1L7,43.6415053,-79.4331157,4,4,1,"Home & Garden, Shopping, Hardware Stores"
5sW_LUzCTNUPRrie1eoiyA,LCBO,Financial District,"First Canadian Place, 100 King Street W",Toronto,ON,M5X 1A9,43.6486092721,-79.380828297,2.5,6,1,"Beer, Wine & Spirits, Food"
aAZJa3e9AQMXKBJxAs2JZw,"The Adelaide Hotel, Toronto",Downtown Core,325 Bay Street,Toronto,ON,M5H 4G3,43.6497994,-79.3802831,3.5,15,1,"Event Planning & Services, Hotels & Travel, Hotels"
EbEDrUGhYWJyNs1QXrrUEg,Pink Twig,Little Italy,711 College St,Toronto,ON,M6G 1C2,43.655067,-79.4182736,3,14,1,"Shopping, Flowers & Gifts, Florists"
j7kbWAOWbpbejCaHyJwqjw,Time Capsule Board Game Cafe & Bar,The Danforth,2183 Danforth Avenue,Toronto,ON,M4C 1K4,43.6862567,-79.3099942,3.5,16,1,"Nightlife, Bars, Poutineries, Restaurants, Arts & Entertainment, Lounges, Cafes, Breakfast & Brunch"
Moq6cn4a0PLFvZW4O9EuGA,Virginia Johnson Lifestyle,Dufferin Grove,970 College Street,Toronto,ON,M6H 1A5,43.6533618,-79.4275103,3,3,0,"Fashion, Shopping, Women's Clothing"
uQ7LZpcYRTcibzK1w9E5uQ,The Healthy Butcher,Alexandra Park,565 Queen Street W,Toronto,ON,M5V 2B6,43.6477703,-79.4006569,4.5,39,1,"Specialty Food, Butcher, Food, Meat Shops"
fIBrbhvU9T2PZuch_wBK_g,Panago Pizza,,1852 Avenue Road,Toronto,ON,M5M 3Z5,43.7314258,-79.4194594,3.5,7,1,"Salad, Pizza, Restaurants, Chicken Wings"
9N68nM8Kwl8qeOqdEdMXXA,The UPS Store,Yonge and Eglinton,34 Eglinton Ave W,Toronto,ON,M4R 2H6,43.7066513,-79.3988617,1,4,1,"Shipping Centers, Printing Services, Couriers & Delivery Services, Public Services & Government, Local Services, Post Offices"
fxRcHzovnRyWh_WMdQoNOQ,Taj Restaurant,,1110 Finch Avenue West,Toronto,ON,M3J 2T2,43.7687078154,-79.474382177,4.5,8,1,"Russian, Restaurants, Mediterranean"
6P3AQxNTpHNaLAd9BYSO2w,Saint James Hotel,Ryerson,26 Gerrard Street E,Toronto,ON,M5B,43.659281299,-79.3811475858,4.5,14,1,"Event Planning & Services, Hotels & Travel, Hotels"
hDZJlt9R7FvfCy4AZvP-JA,Dufflet Pastries,The Beach,1917 Queen Street E,Toronto,ON,M4L 1H3,43.6690087,-79.3042677,3.5,25,0,"Bakeries, Food"
DPLkYvNHNBEs0teU95Ocfw,Miss Cora's Kitchen,Kensington Market,69 Kensington Avenue,Toronto,ON,M5T 2K2,43.6544252,-79.4005439,3.5,30,0,"Desserts, Restaurants, Food, Sandwiches"
1X6TAt6uLEmKyb5Qs6BMWw,Spanish Centre,Church-Wellesley Village,46 Hayden Street,Toronto,ON,M4Y 1V8,43.6699943,-79.3843604,4.5,9,1,"Active Life, Translation Services, Language Schools, Dance Studios, Specialty Schools, Fitness & Instruction, Education, Dance Schools, Professional Services"
oreF3CPWsX2lHq0V4AZQKg,Desi Hut Takeout & Catering,Scarborough,"1515 Birchmount Road, Unit 5",Toronto,ON,M1P 2G7,43.758688,-79.2889502,4.5,3,0,"Pakistani, Halal, Restaurants, Indian"
ogT0OVYJ0t3Xd1yRFmXSoQ,Staples,Summer Hill,1140 Yonge Street,Toronto,ON,M4W 2L8,43.6795668,-79.3910665,3.5,7,1,"Shopping, Office Equipment, Electronics"
skjXX8qzEMeZ5Jgj6SpxoQ,The Second Cup,Downtown Core,179 College St,Toronto,ON,M5T 1P7,43.6588291,-79.3941293,3.5,11,1,"Food, Coffee & Tea"
Y8heNCqlpiUVxpXxcstq8Q,House Of Energy,Kensington Market,145 Augusta Avenue,Toronto,ON,M5L 2L4,43.6525113857,-79.4010374871,4.5,7,1,"Jewelry, Arts & Crafts, Alternative Medicine, Shopping, Food, Restaurants, Health & Medical, Coffee & Tea, Active Life, Meditation Centers, Cafes, Fitness & Instruction"
c7tlMxrQTaU9Nbya8XWpng,D2E Hair Boutique,Bloor-West Village,2255 Bloor Street W,Toronto,ON,M6S 1N8,43.6510084032,-79.4775619558,4,16,1,"Hair Salons, Beauty & Spas, Barbers"
la4mM0mSexjkOLe1goXJPg,Hotopia Sichuan Cuisine,Willowdale,25 Spring Garden Avenue,Toronto,ON,M2N 3G1,43.7644706,-79.4103279,3.5,15,1,"Restaurants, Seafood, Chinese"
zlukBS-cXNz4viHfsVyoZw,The Butchers Son,Mount Pleasant and Davisville,2055 Yonge Street,Toronto,ON,M4S 2A3,43.7019519992,-79.3973290175,4,8,1,"Food, Butcher"
2gUlfNEmqFlugmT-uT1m_w,MUJI,Downtown Core,"595 Bay Street, Unit C-03",Toronto,ON,M5G 2L2,43.6562362934,-79.3817958623,3,56,1,"Home & Garden, Cards & Stationery, Arts & Crafts, Flowers & Gifts, Shopping, Home Decor, Event Planning & Services"
pA44gWen_SoKoLqfiipkvA,Adam & Eve Chocolatier,Church-Wellesley Village,97 Maitland St,Toronto,ON,M4Y 1E3,43.6645888,-79.3797656,4,9,0,"Food, Chocolatiers & Shops, Specialty Food"
ynmTXY9yJDiNkO4HUmxRSQ,KaKa All You Can Eat,Downtown Core,655 Bay Street,Toronto,ON,M5G 2K4,43.6573960642,-79.3842242722,3,78,1,"Asian Fusion, Japanese, Sushi Bars, Restaurants"
qP6l5vZbZY6gUEOjCA7_fw,GFX Printing,Yonge and St. Clair,7B Pleasant Boulevard,Toronto,ON,M4T 1K2,43.6870269,-79.393172,2.5,7,1,"Printing Services, Local Services"
qRTbYc7ennnwfr992kfjdA,Caffino Ristorante,Liberty Village,1185 King Street W,Toronto,ON,M6K 3C5,43.6391708,-79.4254538,4,75,1,"Italian, Restaurants"
bB9JPvR2d-I1jxSVlqN2DQ,Yum Croissant,The Beach,1917 Queen Street East,Toronto,ON,M4L 1H3,43.6689076,-79.304192,4.5,3,1,"Coffee & Tea, Restaurants, Cafes, Sandwiches, Ice Cream & Frozen Yogurt, Food"
ZMmgFw2P4LWsFXNn1ZGc1g,Buster's Sea Cove,Yorkville,876 Yonge Street,Toronto,ON,M4W 2J1,43.672529,-79.3878412,3.5,12,0,"Restaurants, Seafood"
wYe2VeKghAHznLBB2H-2Yw,Visa Center,,"1000 Finch Ave W, Ste 900",Toronto,ON,M3J 2V5,43.7693426,-79.4684549,3,6,1,"Travel Services, Hotels & Travel"
2V8r_VDFqbGNZclTW25FGg,Mr. Greek,,1000 Finch Ave W,Toronto,ON,M3J 2V5,43.769236,-79.468584,2,7,1,"Greek, Restaurants"
hbp72ML8BHykBztI6mWOIw,Pizza Nova,St. Lawrence,222 The Esplanade,Toronto,ON,M5E,43.64946,-79.365449,2,11,1,"Restaurants, Food, Pizza"
nHV1iXKBVlCW64bCt4itnA,Keating Channel Pub & Grill,,2 Villiers St,Toronto,ON,M5A 1B1,43.6476402,-79.3533981,3.5,31,1,"Canadian (New), Restaurants, Bars, Pubs, Nightlife, Seafood"
rU5NxO1V0olyw6ZfUUy_1A,Chic Nails Spa,Little Italy,715 College Street,Toronto,ON,M6G 1C2,43.6550408,-79.4183945,2.5,23,1,"Beauty & Spas, Nail Salons"
eQmGP0FEnewPoW_jBXsg4A,Greenhouse Juice,Downtown Core,"Commerce Court, 199 Bay Street",Toronto,ON,M5L 1E2,43.648258,-79.379558,4,10,1,"Local Flavor, Restaurants, Juice Bars & Smoothies, Food, Food Court"
le1qCRgM-wtKvfeKClbnHQ,Tokyo Sushi,The Annex,362 Bloor Street W,Toronto,ON,M5S 1X2,43.6664844,-79.4058478,3,10,1,"Japanese, Sushi Bars, Restaurants"
r71RUi85E60aGuhVqXWjKA,Hakka No 1 Restaurant 2,,"2355 Keele Street, Unit 15",Toronto,ON,M6M 4A2,43.7079638335,-79.4774818048,3.5,33,1,"Chinese, Indian, Restaurants"
53GguDU6v46zPJTL3CZl5g,Loblaws,Church-Wellesley Village,60 Carlton Street,Toronto,ON,M5B 1L1,43.6621038957,-79.3797745184,4,172,1,"Food, Grocery, Donuts, Bakeries"
qLNHyLeYRra47zzFA1LBUw,Courtyard Toronto Vaughan,Edgeley,150 Interchange Way,Toronto,ON,L4K 5P7,43.7873959831,-79.5350919664,2.5,7,1,"Hotels & Travel, Hotels, Event Planning & Services"
jxV-rtwx1GtpMlMV6d7D4Q,Wings & Wings,Scarborough,1185 Brimley Road,Toronto,ON,M1P 3G2,43.7649093,-79.2591327,4,6,1,"Restaurants, American (Traditional), Canadian (New), Chicken Wings"
w6IW8_94NyyEeHaeVqbVww,Hair Craft Salon,Downtown Core,55 Queen Street E,Toronto,ON,M5C 1R6,43.6526967,-79.3767816,4.5,7,0,"Hair Salons, Beauty & Spas"
klUKlTUH-mSeogjBV_ooQw,JouJou Hair Studio,Etobicoke,375 Royal York Road,Toronto,ON,M8Y 2R1,43.6189642,-79.4995007,4,9,1,"Hair Salons, Beauty & Spas"
pPO_UXvffah1uKhMlo9LBw,Haven Espresso Bar,Bloordale Village,615A Brock Avenue,Toronto,ON,M6H 1T5,43.6594566588,-79.4387515696,4,27,0,"Restaurants, Cafes, Food, Coffee & Tea"
YDwkXB8Vcayvqc_qz_nPLw,2 For 1 Movies,Swansea,2444 Bloor St W,Toronto,ON,M6S 1R2,43.6490488,-79.4852116,4.5,6,1,"Books, Mags, Music & Video, Shopping, Music & DVDs, Videos & Video Game Rental"
CN5nuUQod0f8g3oh99qq0w,KINKA IZAKAYA BLOOR,,559 Bloor St W,Toronto,ON,M5S 1Y6,43.665157,-79.410658,4,403,1,"Tapas/Small Plates, Tapas Bars, Nightlife, Japanese, Pubs, Bars, Restaurants"
zEA2mUDHfLlFe8CmBqyCbg,Nana Florist,The Danforth,2424 Danforth Avenue,Toronto,ON,M4C 1K9,43.6877839,-79.3048795,5,3,1,"Florists, Shopping, Flowers & Gifts"
gmGHRByX_Z1iJenUuaW0kw,Elmwood Spa,Downtown Core,18 Elm Street,Toronto,ON,M5G 1G7,43.6578045831,-79.3833461841,3.5,182,1,"Skin Care, Beauty & Spas, Nail Salons, Day Spas"
raOHWpVZKTBxSBEAKelRFA,Paint Colours Unlimited,,502 Adelaide Street W,Toronto,ON,M5V 1T2,43.6459354,-79.4004675,4.5,3,0,Shopping
Gx9s0PgXpZKdBbDwVXoxrA,Chaninni Eye Style,,808 York Mills Road,Toronto,ON,M3B 1X7,43.754089,-79.3579885,3.5,3,1,"Eyewear & Opticians, Health & Medical, Optometrists, Shopping"
36SbEb0QZp_qdmTH81qQDQ,Mr. Nonno Barber Shop,Koreatown,609 Bloor Street W,Toronto,ON,M6G 1K4,43.6645714,-79.4133428,5,18,1,"Beauty & Spas, Barbers"
0rg8sJGPWebnxNFExpNdHA,Starbucks,Etobicoke,3300 Bloor Street W,Toronto,ON,M8X 2X3,43.6451848,-79.5224953,2.5,3,1,"Food, Coffee & Tea"
R8ft_fn8y9ejKoYnQwdByg,Cafe 668,Trinity Bellwoods,885 Dundas Street W,Toronto,ON,M6J 1V9,43.6509844,-79.411692,3,46,1,"Vietnamese, Vegetarian, Restaurants, Asian Fusion"
eOXoQvgHyYLaqcpRxRUlTA,Wing Machine,The Annex,520 Bloor St W,Toronto,ON,M5S 1Y3,43.6654235,-79.4107791,1,7,1,"Chicken Wings, Restaurants"
OQknXfMqo6izK9baqpfinA,"Madeleines, Cherry Pie and Ice Cream",Seaton Village,1087 Bathurst St,Toronto,ON,M5R 3G8,43.6728084,-79.4141944,4,12,0,"Desserts, Ice Cream & Frozen Yogurt, Food"
gkQNfTEV_XprRvnfZEXPWg,Mike's Liberty Grill,Liberty Village,155 Liberty St,Toronto,ON,M6K,43.6371787,-79.4245862,2,16,1,"Diners, Restaurants"
L-qzasguf_FmrQHSh6Uv6Q,1-888-Junk-Quick,Chinatown,"253 College St, Ste 132",Toronto,ON,M5T 1R5,43.6577455,-79.399,2.5,3,1,"Junk Removal & Hauling, Local Services"
Da1wKWu_ma26i71GKtWDrw,Decadent Desserts,Financial District,100 King Street W,Toronto,ON,M5X 1B8,43.6486362,-79.3817439,3,11,1,"Desserts, Food"
nj72DBEsz68JvB0y3lnySA,The Mobile Shop At Loblaws,Leslieville,17 Leslie Street,Toronto,ON,M4M 3H9,43.6602577,-79.3283292,3.5,3,1,"Mobile Phones, Electronics, Shopping"
c6D8hjtO3vYLA-ZmA_7YoA,Kooltempo Toronto DJ Service,Financial District,161 Bay Street,Toronto,ON,M5J,43.6464743,-79.3793026,5,6,1,"Wedding Planning, Event Planning & Services, Photo Booth Rentals, DJs, Party Equipment Rentals"
J0r3pU8KHfLKBe7jIIK0Rw,Equinox Yorkville,Yorkville,55 Avenue Rd,Toronto,ON,M5R 3L2,43.671654,-79.3946025,3,13,1,"Sports Clubs, Gyms, Day Spas, Fitness & Instruction, Active Life, Beauty & Spas"
FQsvoj2nbVVNPoY_8a6Z-g,The Monkey's Paw,Bloordale Village,1267 Bloor Street W,Toronto,ON,M6H 1N7,43.6584125,-79.4418869,4.5,18,1,"Shopping, Bookstores, Books, Mags, Music & Video"
Sal1p68qpTKkyd4Si8OH6g,Cocktail Bar,Little Italy,923 Dundas St W,Toronto,ON,M6J 1W3,43.6507761,-79.413511,4.5,91,1,"Nightlife, Bars"
VbFGfmrl0VtXc10vKpj5aw,Porticello Restaurant,Harbourfront,370 Queens Quay W,Toronto,ON,M5V 3J3,43.6387666,-79.38979,3.5,3,0,"Italian, Greek, Mediterranean, Restaurants"
q9kVbGaUwsalkhyFJdNQ0Q,Aroma Espresso Bar,Liberty Village,120 Lynn Williams Street,Toronto,ON,M6K 3P6,43.6389539047,-79.4178445594,3,42,1,"Cafes, Restaurants"
yBGqf8l9NOM3vZFnlxcgzQ,Vivoli,Little Italy,665 College St,Toronto,ON,M6G 1B7,43.6548983,-79.4164765,3.5,69,1,"Food, Italian, Restaurants, Pizza, Food Delivery Services"
Orgm9nmcClxnAUva4nOKyA,Hot House Restaurant & Bar,St. Lawrence,35 Church Street,Toronto,ON,M5E 1T3,43.648847496,-79.37368318,3.5,291,1,"Event Planning & Services, Cafes, Breakfast & Brunch, Venues & Event Spaces, Italian, Caterers, Bars, Nightlife, Restaurants"
vAcwjwtHupHOc7f4XLH8Kw,Snap Delivery,,"4205 Keele Street, Unit 11",Toronto,ON,M3K 3T8,43.7713291221,-79.4993519483,3.5,5,1,"Food, Shopping, Food Delivery Services, Restaurants"
VNyWT0hLkIHzt5HQ0W4tSg,Tilted Kilt Pub & Eatery,St. Lawrence,38 The Esplanade,Toronto,ON,M5E 1A1,43.6469296,-79.374978,2.5,74,1,"Bars, Pubs, Nightlife, American (Traditional), Restaurants, Chicken Wings, Sports Bars"
W2NzlS8OJzGfDfr9oRz11Q,Drake One Fifty,Financial District,150 York Street,Toronto,ON,M5H 3S5,43.6493542,-79.3846843,3.5,201,1,"Cocktail Bars, Nightlife, Breakfast & Brunch, Bars, Food, Canadian (New), Brasseries, Restaurants"
ui-tH5JiK-y5_tzSuowMDw,Nejibee Izakaya,Downtown Core,24 Welesely Street W,Toronto,ON,M4Y 2X6,43.6648375,-79.385935,2.5,7,0,"Restaurants, Japanese"
yHxCbP1LRyiS842SbZMq0A,Your Modern Accountant,Financial District,,Toronto,ON,M5H,43.6505712,-79.3845675,4.5,48,1,"Professional Services, Tax Services, Accountants, Business Consulting, Financial Services, Financial Advising, Payroll Services"
BopPNhmn66uUDL2dVyDjHg,Tandoori Flavour,Chinatown,455 Spadina Avenue,Toronto,ON,M5S 2G8,43.6582411,-79.3997179,2,4,1,"Indian, Pakistani, Restaurants"
JPfRL5Wfd9UYKpicBs9UZQ,Republik Nightclub,Entertainment District,259 Richmond Street W,Toronto,ON,M5V 3M6,43.649015,-79.3914189,3,5,0,"Nightlife, Dance Clubs"
2lQVNwzNo-SbVD5lXzNnZA,The Caribbean Queen of Patties,Bloordale Village,1279 Bloor Street W,Toronto,ON,M6H 1N7,43.65836,-79.4422494,3.5,46,0,"Caribbean, Restaurants, Specialty Food, Food"
DeGSNRgk2sAfYbliAa6m2A,Second Cup,Etobicoke,1050 Islington Avenue,Toronto,ON,M8Z 4R6,43.6343020696,-79.5198344385,2.5,3,1,"Coffee & Tea, Local Flavor, Food"
lEMIuw9EuGrni4eY4FaRQQ,Ella Minnow Children's Bookstore,The Beach,1915 Queen Street E,Toronto,ON,M4L 1H3,43.6689248,-79.3042439,3.5,3,1,"Shopping, Bookstores, Books, Mags, Music & Video"
B7yBxYH0ZHYtvrsyrrU1SQ,Steak Supreme,,4033 Gordon Baker Road,Toronto,ON,M1W 2P3,43.8106371,-79.3391971,2.5,15,1,"Steakhouses, Nightlife, Restaurants, Bars, Diners"
S5bNE4Pmin8OQUMOFod8bQ,Ciao Wine Bar,Yorkville,133 Yorkville Avenue,Toronto,ON,M5R 1C4,43.6704754,-79.3936453,3,122,0,"Bars, Italian, Restaurants, Nightlife, Wine Bars"
SR_8hm8Pe-yE7f5mc2HI6g,Soap and Suds,Distillery District,"33 Mill Street, P1 Parking Level",Toronto,ON,M5A 3R3,43.6504555,-79.3608131,2,7,1,"Auto Detailing, Car Wash, Automotive"
n2D9H9y82NCL4EIQaSWMng,Urban Outfitters,Yonge and Eglinton,"2300 Yonge Street, M-13 Yonge Eglinton Centre",Toronto,ON,M4P 1E4,43.7072693,-79.3996009,3,13,1,"Women's Clothing, Home & Garden, Men's Clothing, Home Decor, Shopping, Fashion"
gOh27ZDlLi_l1bWe3656Qw,Number One Sound,Dufferin Grove,952 College Street,Toronto,ON,M6H 1A5,43.6536663,-79.4270193,4,12,1,"Shopping, Car Stereo Installation, Electronics, Automotive"
NYpmDzwzAQyv0gQG5gBKbw,Pachuco,Riverdale,99 Danforth Avenue,Toronto,ON,M4K 1N2,43.6762949,-79.3582997,3.5,22,0,"Mexican, Restaurants"
YGOrl1m87cg7g0xZyQslHg,Shoppers Drug Mart,,808 York Mills Road,Toronto,ON,M3B 1X8,43.754089,-79.3579885,2,5,1,"Shopping, Drugstores"
2KkTzafNqkEKr5VTjsR3hw,New Spiceland Restaurant,Scarborough,6065 Steeles Avenue E,Toronto,ON,M1X 0B1,43.8365904448,-79.2486990988,3,5,1,"Sri Lankan, Indian, Restaurants"
DLkaSKMoeeQO-_1C_lzh2A,Bairrada Churrasqueira Grill,Dufferin Grove,1000 College Street,Toronto,ON,M6H 1A7,43.6532223,-79.4287255,3.5,100,1,"Barbeque, Portuguese, Restaurants, Seafood"
b30HREePgMGPZMPaExTZSA,Graven Feather,West Queen West,906 Queen Street W,Toronto,ON,M6J 1G9,43.6450221,-79.415367,4,6,1,"Shopping, Arts & Entertainment, Art Galleries"
UjKOk1J45MWP6xm_nPmpMg,Wheels 4 Rent,Kensington Market,77 Nassau Street,Toronto,ON,M5T 1M6,43.6551047,-79.4028708,4,6,1,"Car Rental, Hotels & Travel, Truck Rental, Automotive"
6NffysI3E7L4kr71dxInIg,Big Smoke Burger,,799 York Mills Road,Toronto,ON,M3B 1X6,43.7527891,-79.3592021,3,40,1,"Burgers, Poutineries, Fast Food, Canadian (New), Restaurants"
QZCAx1CM8Q5NSTc-8ProOA,Cafe Novo,Kensington Market,254 Augusta Avenue,Toronto,ON,M5T 2L7,43.6557771,-79.4026824,3.5,19,0,"Restaurants, Cafes"
NBGRHP_0toZzTVXS-oqs_Q,Char No. 5 Whisky Bar,,75 Lower Simcoe Street,Toronto,ON,M5J 3A6,43.643033,-79.38379,4,17,1,"Bars, Whiskey Bars, Nightlife"
AOhJfJVuEPUh_in7WHDnzQ,Subway,Deer Park,1506 Yonge Street,Toronto,ON,M4T 1Z6,43.6889196,-79.3945875,1.5,3,1,"Fast Food, Sandwiches, Restaurants"
JMtb6Wwjo0m0WCq7WjtPIA,Peter Fagan Bookkeeping,Church-Wellesley Village,,Toronto,ON,M4Y 1N7,43.6682648,-79.3811365,3.5,12,0,"Tax Services, Professional Services, Financial Services, Accountants"
mPX2Hck_jsgyF9mXRgaGGg,The Dry Cleaners,,650 Dupont St,Toronto,ON,M6G 4B1,43.6721783,-79.4206291,1.5,3,1,"Dry Cleaning & Laundry, Laundry Services, Dry Cleaning, Local Services"
SKpk2qqSTC2JrCunGz3sIA,Detour Bar,Kensington Market,193 5 Baldwin Street,Toronto,ON,M5T 1M1,43.6545837336,-79.4014549255,4,5,0,"Bars, Nightlife"
scVd-lmZCNZHK5W75-4sKQ,Dac Biet Burger,Downtown Core,213 Church Street,Toronto,ON,M5B 1Y7,43.6559443653,-79.3767318882,4.5,122,0,"Restaurants, Vietnamese, Asian Fusion, Burgers"
OwnTqF-vq8W_BVCZhcs1_A,Danier Leather,Downtown Core,218 Yonge Street,Toronto,ON,M5B 2H6,43.653224,-79.3803279,3,5,0,"Fashion, Leather Goods, Shopping"
_nsuZ7Fl1aMwqZGWEraQHw,Cora,Etobicoke,"1555 The Queensway, Unit 2",Toronto,ON,M8Z 1T8,43.6179340342,-79.5391701027,2.5,46,1,"Restaurants, Breakfast & Brunch"
ZbqOJzVWEtmuC4tkNygAxQ,Gears,,109 vanderhoof Avenue,Toronto,ON,M4G,43.7126131,-79.3600673,3.5,3,1,"Sporting Goods, Shopping, Bikes"
8pO590eqmSe9iLVc-d183g,Gobo Sushi Restaurant,,3203 Dufferin Street,Toronto,ON,M6A 2T2,43.7185989,-79.4554014,2.5,7,0,"Japanese, Restaurants, Sushi Bars"
qd4qMzC2QrlgY4iDBMeLiQ,Stock Yards Village,,1980 St. Clair Avenue W,Toronto,ON,M6N 0A3,43.6734777635,-79.4706109911,3.5,16,1,"Shopping, Shopping Centers"
1Lm1euBdgzxuPGjJbHTudg,Grasslands,Alexandra Park,478 Queen Street W,Toronto,ON,M5V 2B4,43.6479391,-79.4003492,4,64,0,"Restaurants, Vegan, Lounges, Bars, Nightlife, Modern European"
s-9ZfWtECJLMnND12t6RMA,Hotmess Tex Mex,Little Italy,615 College Street W,Toronto,ON,M6G 1B5,43.6549543,-79.4146607,3.5,13,1,"Tex-Mex, Bars, Nightlife, Restaurants"
jEV2w8rv9JuOhqk3E6uElQ,Marshall's,Entertainment District,126 John Street,Toronto,ON,M5V 2E3,43.648761,-79.390834,3.5,15,1,"Department Stores, Shopping, Fashion"
j_aPSU74xzffmw0lcrY8kQ,Capriccio,Willowdale,5379 Yonge Street,Toronto,ON,M2N 5R6,43.7759804,-79.4143258,3.5,60,1,"Desserts, Food, Bakeries, Coffee & Tea"
8ZpXbFWIY4uEnmOJMr6gyQ,Pour Boy,Little Italy,583 College Street,Toronto,ON,M6G 1B2,43.655321,-79.413309,4,12,1,"Pubs, American (Traditional), Bars, Nightlife, Restaurants"
fRx1-wPy_6I6z7dkOuzO4w,Next Door Clothing,Queen Street West,433 Queen Street W,Toronto,ON,M5V 1A1,43.6487842,-79.3957163,4,3,0,"Women's Clothing, Fashion, Shopping, Men's Clothing"
cUhIkGT4RCc-X8ZapWv0qg,Yoga Tree,Downtown Core,"140 Spadina Avenue, Unit 201",Toronto,ON,M5V 2L4,43.6477378123,-79.3962831521,3.5,26,1,"Active Life, Trainers, Yoga, Fitness & Instruction"
AhRd1MUgnXhCQTTIu3Z2SQ,Spot Coffee,City Place,333 Bremner Boulevard,Toronto,ON,M5V 3V3,43.6405545983,-79.3912861202,3,47,0,"Coffee & Tea, Food"
PsIHt3-ezbkUBNVzbYTPmg,Bell Canada Fibe TV,Cabbagetown,,Toronto,ON,M5A 3V4,43.6624814,-79.3652996,1,11,1,"Television Service Providers, Home Services"
aep2Dc7tdI1IVUGaVRjRJQ,Sport Nutrition Depot,Downtown Core,632 Yonge Street,Toronto,ON,M4Y 1Z8,43.6663493,-79.3853278,4,3,0,"Food, Specialty Food, Health Markets"
xkoQ1c4c6F9Fy3J73kN7Rg,Second Cup,,415 Spadina Road,Toronto,ON,M5P 2W3,43.6887909487,-79.4125807285,4.5,4,1,"Food, Coffee & Tea"
VM8LZTKqtprMEs0h3CDOXA,Big Al's Flyin' Phillys,Kensington Market,"Kensington Market, 251 Augusta Avenue",Toronto,ON,M5T 2L8,43.6550126,-79.4021026,3.5,13,0,"American (Traditional), Sandwiches, Restaurants"
K6MBwTYeuLH0VsTVCLVgxg,MEXITACO,,1109 Victoria Park Avenue,Toronto,ON,M4B 2K2,43.7088142,-79.2959772,4,65,1,"Mexican, Nightlife, Restaurants, Latin American, Cocktail Bars, Bars"
RJxkhoGxTsz545_sTlDdFA,Thai Express,Yonge and St. Clair,21 St Clair Ave E,Toronto,ON,M4T 1L8,43.6881862,-79.3929441,2,12,1,"Restaurants, Thai"
qfLwyF-xr3Xpfo94-jcfdQ,Quotes Bar & Grill,Entertainment District,220 King Street W,Toronto,ON,M5H,43.6472849,-79.3870757,3,4,0,"Restaurants, Bars, Nightlife, American (Traditional)"
3QRdvd5F6rnKzLLb1mIg6Q,Hero Certified Burgers - Church & Wellesley,Church-Wellesley Village,77 Wellesley Steet E,Toronto,ON,M4Y 1H7,43.6656556,-79.3806099,2.5,42,1,"Burgers, Restaurants"
_VYuXfeaV1Dlox7OR62jKg,"Lisa Clarke, DC",Church-Wellesley Village,"2 Carlton Street, Unit 1522",Toronto,ON,M5B 1J3,43.661606,-79.3827503,5,4,1,"Chiropractors, Acupuncture, Health & Medical"
3XgqVF5YKdQLCWDKiEkt0g,St. John's Bakery,Riverdale,153 Broadview Avenue,Toronto,ON,M4M 2E9,43.6604577,-79.3501466,4,19,1,"Food, Bakeries"
sdXhQco_76dRejNaxfgacQ,Sit In Bangkok,Little Italy,713 College Street,Toronto,ON,M6G 1C2,43.6551273,-79.4183899,3,8,0,"Restaurants, Thai"
VMNlVrThEh5ssq4aiWPqQA,Adrift,Downtown Core,"116 Spadina Avenue, Suite G2",Toronto,ON,M5V 2K6,43.6470844,-79.3961095,3.5,3,1,"Men's Clothing, Fashion, Sporting Goods, Shoe Stores, Shopping"
sGAbBm8eX6DY5R5S2NSy6g,Shangri-La Hotel,Financial District,188 University Avenue,Toronto,ON,M5H 0A3,43.6492855,-79.3858557,4,121,1,"Hotels & Travel, Bars, Restaurants, Hotels, Event Planning & Services, Canadian (New), Lounges, Nightlife"
kfe7PJFyckZ-ck9grvHfvw,The Jim,Bloordale Village,1174 Bloor Street W,Toronto,ON,M6H 1N1,43.6596628,-79.4372698,4.5,3,1,"Nightlife, Bars, Pubs"
SYGoFUdLLPyh1lZ9_nwOUA,Brick Street Bakery,Financial District,"First Canadian Place, 100 King Street W",Toronto,ON,M5X 2A1,43.6486323184,-79.3825163762,3.5,36,1,"Bakeries, Food"
nT_3IOL2FQi9LEveAoyesw,Divrge,,2711 Yonge Street,Toronto,ON,M4N 2H8,43.7172433,-79.4003902,4.5,3,1,"Arts & Entertainment, Virtual Reality Centers, Arcades"
ogUiKg4hL01zt2o2M5IZ3w,Ame,Entertainment District,19 Mercer St,Toronto,ON,M5V 1H2,43.6456899,-79.3905064,3.5,23,0,"Nightlife, Japanese, Bars, Restaurants"
LBHbyID7tcaGszznHtnCrw,JOEY Eaton Centre,Downtown Core,1 Dundas Street W,Toronto,ON,M5G 1Z3,43.6554168,-79.3818268,3.5,401,1,"Canadian (New), Nightlife, Bars, Sports Bars, Restaurants"
ZV_WwVWXjgXFI9Ug2HyOUw,Bay College Optometric Centre,Discovery District,"790 Bay Street, Ste 108",Toronto,ON,M5G 1N8,43.6604976,-79.3860586,3.5,7,1,"Health & Medical, Optometrists"
nxbVyDfknWtycymHluAzSA,Skwish,The Beach,2252 Queen Street E,Toronto,ON,M4E 1G2,43.6729833023,-79.2866801843,3.5,35,0,"Restaurants, Seafood, Gastropubs, Asian Fusion, Breakfast & Brunch"
qItapx5sE3RNtQcuu6fLDA,Dave Snider Music Center Limited,,3225 Yonge Street,Toronto,ON,M4N 2L3,43.728377,-79.4028682,3,3,1,"Shopping, Musical Instruments & Teachers, Education, Specialty Schools"
0pPWDhFSE6mAXfRRCc2LZA,Jacco Tours Ont,Alexandra Park,222 Av Spadina,Toronto,ON,M5T 2C2,43.6513101,-79.3979694,2,4,1,"Travel Services, Hotels & Travel"
imhibWA4C4M7drQSeZZU9g,TIFF Bell Lightbox,Entertainment District,350 King Street W,Toronto,ON,M5V 3X5,43.6466224,-79.3903325,4,72,1,"Cinema, Arts & Entertainment"
L23nB3EiC0OSfP8792Bk-Q,RISE Espresso,Downtown Core,107 Mutual Street,Toronto,ON,M5B 2B2,43.6570344,-79.3755449,4.5,26,0,"Restaurants, Cafes, Food, Coffee & Tea"
G2Z-4U6cDsDQvT6v3FzYmA,Ricarda's,Entertainment District,134 Peter Street,Toronto,ON,M5V 2H2,43.6484621,-79.3936807,4,115,1,"Tapas Bars, Bakeries, Food, Desserts, Breakfast & Brunch, Mediterranean, Restaurants"
bns0V-7B5eAUBQ5qfXL12w,Gabby's Junction,The Junction,3026 Dundas St. W.,Toronto,ON,M6P 1Z2,43.6654726,-79.4702154,2.5,22,1,"Bars, Canadian (New), Nightlife, Fast Food, Pubs, Fish & Chips, Food, Seafood, American (Traditional), Restaurants, Burgers"
5WJOM9DefIvLOIrntDIv-A,TrueTrue,Corktown,169 King Street E,Toronto,ON,M5R 1J4,43.6503484,-79.3713047,4,116,1,"Restaurants, Pizza"
Z1r6b30Tg0n0ME4-Zj2wQQ,Boardwalk Place,,1675 Lake Shore Boulevard E,Toronto,ON,M4W 3L6,43.6630096,-79.3108978,3,13,1,"Nightlife, Restaurants, American (Traditional), Pubs, Beer, Wine & Spirits, Food, Bars"
ySdHSrOYKVfbU0-4IHqx7A,Celebration Shoes,Yorkville,106 Yorkville Avenue,Toronto,ON,M5R 1B9,43.6709457,-79.392692,5,4,0,"Fashion, Shoe Stores, Shopping"
tcDrRLu-vQwkRjb8V1IxmA,Toronto Plaza Hotel,Downsview,1677 Wilson Ave,Toronto,ON,M3L 1A5,43.7191453,-79.5149322,1,8,1,"Hotels & Travel, Hotels, Event Planning & Services"
inHnf3mcrDuVitlD4cbkXg,Aquarelle,Yorkville,"90 Yorkville Avenue, 2nd Floor",Toronto,ON,M5R 1B9,43.6712119,-79.3918458,3.5,10,1,"Health & Medical, Massage, Medical Spas, Beauty & Spas"
D9IvgZeBD2qFfhIRbOcBFQ,Cafe D Taj,Scarborough,3342 Danforth Avenue,Toronto,ON,M1L 1C9,43.6936093,-79.2775526,4,13,1,"Restaurants, Bangladeshi"
cp_hGwmhtVs9HmG1ksTqRA,Miami Fades,Yorkville,98 Scollard Street,Toronto,ON,M5R 1G2,43.6719147,-79.3920657,2.5,5,1,"Hair Salons, Beauty & Spas, Barbers"
emXQlQykTqiFRDVhlmm0xg,Sunshine Wholesome Market,Dufferin Grove,942 College Street,Toronto,ON,M6H 1A5,43.6536611,-79.4266704,4,17,1,"Shopping, Food, Specialty Food, Department Stores, Health Markets, Fashion, Juice Bars & Smoothies"
0Xdn06vGY4_91BThoIerEg,Barrio Lounge,Leslieville,Queen Street E 896,Toronto,ON,M4M 1J2,43.660498,-79.3429538,3.5,3,1,"Nightlife, Bars"
AHeilK8QgEn6on7tGFVYnQ,Roywoods,City Place,121 Fort York Boulevard,Toronto,ON,M5V 4B3,43.6391084709,-79.3984367698,3.5,55,1,"Sandwiches, Restaurants, Caribbean"
m_oDb20lRwkEsp6SY6caEw,Hair Dynamix,The Beach,2090 Queen Street E,Toronto,ON,M4E 1E1,43.6709384,-79.2962045,4,23,1,"Barbers, Hair Salons, Skin Care, Beauty & Spas"
_BJ2lBc1TWwIfxNzXbaaBA,District 28 Bar Bistro,Leslieville,28 Logan Avenue,Toronto,ON,M4M 2M8,43.6553283,-79.340498,3,10,1,"Nightlife, Bars, Cafes, Sandwiches, Restaurants, Venues & Event Spaces, Breakfast & Brunch, Burgers, Event Planning & Services"
3vlAG8FVYRB9wEIZXFk3ag,Playful Grounds,Little Italy,605 College Street,Toronto,ON,M6G,43.6551214,-79.4143125,3,6,0,"Coffee & Tea, Event Planning & Services, Venues & Event Spaces, Food"
xCt8ZSsoiY3SoIaRPh8gAw,Arthur Murray Dance Studio,Yorkville,70 Yorkville Avenue,Toronto,ON,M5R 1B9,43.6712923,-79.3908793,4.5,3,1,"Dance Studios, Dance Clubs, Active Life, Fitness & Instruction, Arts & Entertainment, Social Clubs, Nightlife, Performing Arts"
YXenE_YRdnBZQJPX9C18Ow,Busy Bee Spa,Downtown Core,"250 Yonge Street, Suite 2201",Toronto,ON,M5B 2L7,43.6543767,-79.380481,2.5,5,1,"Laser Hair Removal, Threading Services, Waxing, Hair Removal, Day Spas, Beauty & Spas"
ufwkkMd9yr9cFU1R5ONArg,Huevos Gourmet,New Toronto,2888 Lake Shore Boulevard W,Toronto,ON,M8V 1J2,43.6012391,-79.5037742,4.5,149,1,"Mexican, Breakfast & Brunch, French, Restaurants"
AM0NHSxMeX92OKBt0ywmSA,La Carnita,Riverdale,780 Queen Street E,Toronto,ON,M4M 1H4,43.6594257,-79.3474964,3.5,97,1,"Mexican, Restaurants"
wNhqJfD4nqVBCEsbct6I8Q,Beam Echo,Seaton Village,488 Dupont Street,Toronto,ON,M6G 1Y7,43.6730101,-79.4149281,3,3,0,"Computers, Shopping"
J7vdscHQEfpSTMiJb3i5ww,Ruby Thai,Financial District,"1 First Canadian Place, Mezzanine Level",Toronto,ON,M5X 1C1,43.6487387,-79.3814897,3.5,16,1,"Restaurants, Thai"
dzFXZQ-0379EgwAspKhtkQ,"Albert Li, OD",,"340 College Street, Suite 330",Toronto,ON,M5T 3A9,43.6575514,-79.4034924,5,4,1,"Health & Medical, Optometrists"
-9u2uFwhlj3Yq4mG5IweoA,Hawker Bar,Ossington Strip,164 Ossington Avenue,Toronto,ON,M6J 2Z7,43.6482809,-79.4203829,3.5,151,0,"Cocktail Bars, Singaporean, Restaurants, Asian Fusion, Bars, Nightlife"
Mv3pO01Alty1pXQwi-Uy5A,Rice & Noodle,Parkdale,1508 Queen St W,Toronto,ON,M6R 1A4,43.6403877,-79.4383381,3,12,1,"Couriers & Delivery Services, Restaurants, Local Services, Chinese"
vMqUZEaqALd6Q9b4lO-62g,Burrito Bandidos,Entertainment District,120 Peter St,Toronto,ON,M5V 2G7,43.6479919,-79.3932236,4,103,0,"Restaurants, Tex-Mex"
Uz9GCggCILF_Djrvz7LsIA,Toronto Public Library - Palmerston Branch,Koreatown,560 Palmerston Ave,Toronto,ON,M6G 2P7,43.6651023,-79.4141879,4,3,1,"Public Services & Government, Libraries"
hG2USPtkeQAgnJ0rp9Q19g,Bizzy B's Stamp and Scrap,Bloor-West Village,2100 Bloor Street W,Toronto,ON,M6S 1M7,43.652377,-79.470723,4.5,5,0,"Specialty Schools, Education, Arts & Crafts, Office Equipment, Art Supplies, Shopping"
MKhdFFcrLQMceUMbfl0o_A,DO IT Landscaping,The Danforth,,Toronto,ON,M4C 1B5,43.6836826,-79.3102011,5,4,1,"Pressure Washers, Home Services, Junk Removal & Hauling, Local Services, Handyman, Landscaping"
G7KmakNQYBoNVQtdwtkWPw,M&D Health Care,Scarborough,"2351 Kennedy Road, Unit 123",Toronto,ON,M1T 3G9,43.784914,-79.288941,5,3,1,"Health & Medical, Acupuncture, Reflexology, Physical Therapy"
Jz0bFCZvD-FfIe7RDwuRfw,Dollarama,Corktown,"226 Front Street E, Unit 3",Toronto,ON,M5A 1E8,43.6511526,-79.3645771,2.5,3,1,"Discount Store, Shopping"
Y7qLUAC3UBOk70WSaigQdQ,Toronto Warriors Volleyball Club,Scarborough,"Agincourt Collegiate Institute, 2621 Midland Ave",Toronto,ON,M1S 1R5,43.7872208,-79.2793043,5,9,1,"Sports Clubs, Active Life"
fo_w5L2x00wS4NMHzE8oyg,Sandoozles Smokehouse & Pub,Mount Pleasant and Davisville,709 Mount Pleasant Road,Toronto,ON,M4S 2N4,43.7074876432,-79.3896615989,2,5,0,"Barbeque, Restaurants"
egLYFnycp8ktxMCvilFdLw,Passport Photo,Chinatown,"327B Spadina Avenue, Unit 203",Toronto,ON,M5T 2E9,43.6545374,-79.3983798,5,255,1,"Shopping, Photography Stores & Services"
1w7J0Ja9SSM3V_zwYTZScQ,Monkey Magoo's Party & Playhouse,Scarborough,1212 Kingston Road,Toronto,ON,M1N 1P3,43.6825279,-79.2791774,4.5,6,0,"Playgrounds, Indoor Playcentre, Event Planning & Services, Recreation Centers, Venues & Event Spaces, Active Life"
8IqVdS0q-JpzZc1-it4lRg,Food Cabbie,Downtown Core,,Toronto,ON,,43.653226,-79.3831843,4,5,1,"American (Traditional), Restaurants, Food, Food Trucks, Street Vendors"
E0djzqBHz923hwj-MJFO6Q,The Fresh Tea Shop,Yonge and Eglinton,"2300 Yonge Street, Unit PL4",Toronto,ON,M4P 1E4,43.7072763,-79.3995622,3.5,17,1,"Bubble Tea, Food, Coffee & Tea Supplies, Coffee & Tea"
NFaVXGofY855SyGs6D3_-Q,Tosto Quickfire Pizza Pasta,,431 Richmond Street W,Toronto,ON,M5V 1X9,43.6476808,-79.3967361,3.5,28,1,"Pizza, Salad, Restaurants, Sandwiches, Italian"
SWqSOsuyi2q-R33WM3mN5g,Tammy Laber Coaching And Counselling,Riverdale,36 Dingwall Avenue,Toronto,ON,M4J 1C3,43.6738075,-79.3419993,4.5,3,1,"Event Planning & Services, Legal Services, Professional Services, Life Coach, Health & Medical, Counseling & Mental Health, Wedding Planning"
wYZoSBvIbJWvDl-ruZwJ7Q,Harbourfront Centre,Harbourfront,235 Queens Quay W,Toronto,ON,M5J 2G8,43.6390687,-79.382896,4,60,1,"Arts & Entertainment, Local Flavor, Event Planning & Services, Performing Arts, Venues & Event Spaces"
aKYuuU8Dssmngg3Bs_MCSQ,Linen Chest,,"93 Laird Drive, Unit 8",Toronto,ON,M4G 3V1,43.706714918,-79.3597960716,3.5,3,1,"Home & Garden, Home Decor, Mattresses, Shopping, Kitchen & Bath"
mzZs1egqfb6l8UHyu8nkTg,Auctionmaxx,,"200 Bartor Road, Unit 1",Toronto,ON,M9M 2W6,43.7270591,-79.5247605,1.5,10,1,"Home Services, Office Equipment, Real Estate, Home & Garden, Shopping, Personal Shopping, Books, Mags, Music & Video, Thrift Stores, Furniture Stores, Estate Liquidation, Fashion"
kd_3MlqHoa8NxFHTJIjaOg,Butchers of Distinction,Riverdale,738 Queen Street East,Toronto,ON,M4M 1H6,43.6596899,-79.3463108,4.5,13,1,"Butcher, Food"
r-kj-kBSKFKh0sM8EVX8AA,The Future Of Frances Watson,Parkdale,1390 Queen Street W,Toronto,ON,M6K 1L7,43.6412746,-79.4337676,5,4,1,"Men's Clothing, Women's Clothing, Fashion, Accessories, Shopping"
uA5e1dtb-t85dl52Ruc5wQ,Hair Sensation and Skin Care,The Danforth,1402 Danforth Ave,Toronto,ON,M4J 1M9,43.6826149,-79.3277289,5,3,1,"Hair Salons, Beauty & Spas"
k216g_LRctaecOejbFKBgw,Midfield,Little Portugal,1434 Dundas Street W,Toronto,ON,M6J 1Y6,43.6496102,-79.4300257,3.5,35,1,"Bars, Nightlife, Wine Bars"
dgbojHKoThh0DVZeEtq5qw,Crossfit Colosseum,New Toronto,"222 Islington Ave, Unit #4",Toronto,ON,M8V,43.6047127,-79.5072803,4.5,6,1,"Gyms, Fitness & Instruction, Active Life"
Qnb0q6CfrUXhMINRMOqSbw,Uncle Jacob,Chinatown,355 Spadina Ave,Toronto,ON,M5T 2G3,43.6554485,-79.3987705,1.5,6,1,"Sporting Goods, Shopping, Bikes"
bdFFShNt7eAGGGAaKfG3NQ,Latte Mei,Downtown Core,201 Dundas Street W,Toronto,ON,M5G 2E8,43.6549537,-79.3872888,4,15,0,"Food, Coffee & Tea"
DAfWBoWNe_B5_lJAfYH5KQ,Jimmy's Coffee,Ossington Strip,15 Ossington Avenue,Toronto,ON,M6J 2Y8,43.6445981,-79.4188727,4,24,1,"Cafes, Food, Coffee & Tea, Restaurants"
RwCsc92Rzvwus3CUYjWsYA,Sugar & Spice,Kensington Market,265 Augusta Ave,Toronto,ON,M5T 2M1,43.6555944,-79.4022042,3,7,1,"Health Markets, Specialty Food, Food"
s7Cq3DdSELAU_IFYXOnicg,Starbucks,Downtown Core,65 Dundas Street W,Toronto,ON,M5G 2C5,43.6557894205,-79.3829541717,3,7,1,"Coffee & Tea, Food"
u_iVzxxSAc--cDLtOf2HZA,The Hudson's Bay,,6500 Yonge Street,Toronto,ON,M2M 3X4,43.7961777,-79.4207079,1.5,7,1,"Shopping, Fashion, Department Stores"
gVILTnDFDsVuVdxFVkRK7A,The Captain's Boil,Etobicoke,"1800 The Queensway, Unit 5",Toronto,ON,M9C 5H5,43.6156501,-79.5587629,4,46,1,"Seafood, Asian Fusion, Restaurants, Cajun/Creole"
yS4H1eQBtWLmYlkTKVL6hg,Granowska's Bakery,Roncesvalles,175 Roncesvalles Avenue,Toronto,ON,M6R 2L3,43.6444476,-79.4481838,3,5,0,"Bakeries, Breakfast & Brunch, Food, Restaurants, Delis"
cRuBViGeFsqje96hODEt8w,Volum Salon & Spa,Financial District,200 Bay Street,Toronto,ON,M5J 2J1,43.6467276011,-79.3800830841,3,4,1,"Hair Salons, Nail Salons, Beauty & Spas, Day Spas, Hair Removal"
6eRSdODyj9GS0w6zlhrWkg,Adega Restaurante,Downtown Core,33 Elm St,Toronto,ON,M5G 1H1,43.6573112,-79.3832292,4,127,1,"Restaurants, Spanish, Portuguese"
x4q_kJ-dvaHL7dkpZKJUdg,Bob's Bulgogi,Downtown Core,105 Victoria Street,Toronto,ON,M5C 3B4,43.652139,-79.377507,4,67,1,"Korean, Restaurants"
ithS085HZL2d6Sx3PTxFew,Clara's Tea,Ryerson,"384 Yonge Street, Suite 16",Toronto,ON,M5B,43.659154,-79.3821435,4,4,1,"Tea Rooms, Food"
DLwpjhatiSRN7QqZQwokSw,La Tortilleria,Kensington Market,198 Augusta Ave,Toronto,ON,M5T 1L8,43.6543794,-79.402228,2.5,47,1,"Mexican, Restaurants"
gP5-u9KocdsveHGX5fFk9w,Photo 123,Yorkville,730 Yonge Street,Toronto,ON,M4Y 2B7,43.6688657,-79.3869717,3,7,1,"Photographers, Hobby Shops, Local Services, Event Planning & Services, Printing Services, Shopping, Photography Stores & Services"
Ds7Q4ix3luhMmm0kFt2xVg,Laylow Brewery,Brockton Village,1144 College Street,Toronto,ON,M6H 1B6,43.6524129,-79.4338167,4,21,1,"Gastropubs, Pubs, Restaurants, Breweries, Nightlife, Bars, Food"
uChTCA6MsLAciDRklpO-Fw,Makkal Chon,Scarborough,1979 Lawrence Avenue E,Toronto,ON,M1R 2Z2,43.7446409,-79.296277,4,255,1,"Greek, Korean, Restaurants"
FIsgiBEDHHFCKrMrxWYe4Q,North York Centre Station,Willowdale,5152 Yonge St,Toronto,ON,M2N 7E9,43.7688346,-79.4128984,3.5,3,1,"Public Transportation, Transportation, Hotels & Travel"
EoUYBTQWpUJr7Sp6Kpw1aQ,Fu Lai,Etobicoke,3858 Bloor Street W,Toronto,ON,M9B 1K9,43.6412267,-79.5392372,3,14,1,"Restaurants, Dim Sum, Chinese"
6z8niWBqVsjyenVG5_LtDw,The Opera House,Riverdale,735 Queen St. E.,Toronto,ON,M4M 1H1,43.6588119,-79.3487119,4,37,1,"Arts & Entertainment, Music Venues, Nightlife"
UXaNcKs_ANM7fPDUUdLYAg,Patisserie Saint Honore,Etobicoke,2945 Bloor Street W,Toronto,ON,M8X 1B3,43.64792,-79.5075289,5,4,1,"Food, Bakeries"
mX7MbI_i9gqdJAgEOZKvpQ,Ashtanga Yoga Centre of Toronto,,3215-A Yonge St,Toronto,ON,M4N 2L3,43.7281363,-79.4028268,4.5,6,1,"Fitness & Instruction, Active Life, Yoga"
17fB9l8NWZRWDbbAs8iqtw,Lawrence Station,,3101 Yonge St,Toronto,ON,M4N 2K7,43.7253628,-79.4019375,3.5,3,1,"Public Transportation, Hotels & Travel, Transportation"
-ilQJIxKCOs6Z4kmO7n8Gw,Gilded & Green Florist,,3232 Yonge Street,Toronto,ON,M4N 2L4,43.7294158,-79.4035344,5,4,1,"Shopping, Flowers & Gifts, Florists"
J-cXzP24JUjp8ebxUTwfaA,Chachago,Downtown Core,3 Elm Street,Toronto,ON,M5G 1H1,43.6576241187,-79.3818469718,3.5,54,0,"Bubble Tea, Food, Tea Rooms, Coffee & Tea, Juice Bars & Smoothies"
jzveTy7ogH7cg9axZ78ENg,Bar Koyoi Restaurant North York,Willowdale,5347 Yonge Street,Toronto,ON,M2N 7A1,43.7749233,-79.4142464,3,14,0,"Japanese, Restaurants"
gFrOJ2rOR8ak4xyaOcao-A,Baldwin Naturals-Organic Food Market,Downtown Core,16 Baldwin Street,Toronto,ON,M5T 1L2,43.6562508,-79.3929338,4,16,1,"Fruits & Veggies, Shopping, Specialty Food, Health Markets, Food"
lMkCx59grIiokddQb6Jd3g,Painting The Town,Upper Beach,307B Coxwell Avenue,Toronto,ON,M4L 3B5,43.6743088,-79.3198576,5,3,1,"Home Services, Painters, Contractors, Interior Design"
1gL9mw6HRbetCb9vOBoPQw,Pizzaiolo,Yonge and St. Clair,13 St Clair Ave W,Toronto,ON,M4V 1K6,43.6877499,-79.394666,3.5,21,1,"Restaurants, Gluten-Free, Pizza, Vegan, Italian"
cen0cy8yRG4DQSR_8xcupQ,Falafel World,Bloor-West Village,2396 Bloor Street W,Toronto,ON,M6S 1P5,43.6498611953,-79.4826032879,4,64,1,"Restaurants, Falafel, Mediterranean, Middle Eastern"
spXCMnqBJLn9CjPMO6YSfw,The Faculty Club,University of Toronto,41 WIllcocks Street,Toronto,ON,M5S 3G3,43.6612761,-79.4005814,3,7,1,"Event Planning & Services, Venues & Event Spaces"
WtA9dDDIMz-QESDSRnOYkw,Saigon Bistro,,122 Atlantic Ave,Toronto,ON,M6K 1X4,43.6401362,-79.421234,3,20,1,"Asian Fusion, Restaurants, Vietnamese"
9g2TV23yfYabxHGuW_lrgA,Escape Goat,Parkdale,1510 Queen Street W,Toronto,ON,M6R 1A4,43.640361,-79.4383991,4.5,7,1,"Nightlife, Pubs, Bars"
NKOAHVajud34ULCVvUSToA,Rexall,,481 Bloor Street W,Toronto,ON,M5S 1Y2,43.6658735,-79.4071499,2,3,1,"Pharmacy, Health & Medical"
QcFKjb2i2Rxtnw9UJ3TrSg,Valley Farm Produce,Greektown,466 Danforth Ave,Toronto,ON,M4K 1P3,43.6779245,-79.3499918,4,3,1,"Farmers Market, Food"
jUdkAoyuXqCjCjkP2zzD0w,Booster Juice,Entertainment District,"200 Wellington Street West, Unit #380",Toronto,ON,M5V 3C7,43.6458423,-79.3879503,4.5,3,1,"Food, Juice Bars & Smoothies"
V-U3rnJtlZSFqF--3vaoKg,Low Carb Canada,Scarborough,"780 Birchmount Road, Unit 6-7",Toronto,ON,M1K 5H4,43.7265334,-79.2771823,4,5,0,"Food, Specialty Food, Health Markets"
OFAiA6En2HD0CqLkFDCNpg,The Host,The Annex,14 Prince Arthur Avenue,Toronto,ON,M5R 1A9,43.6700458,-79.3958276,3.5,94,1,"Restaurants, Event Planning & Services, Pakistani, Middle Eastern, Caterers, Indian"
ZBSha-zoPLias7wCQ0ZyVw,Gamberoni Restaurant,,3238 Yonge Street,Toronto,ON,M4N 2L4,43.7295029,-79.4035613,3,23,1,"Italian, Restaurants"
XXGzCIcxzAZ6H98mxZbdqA,T&T Supermarket,,222 Cherry Street,Toronto,ON,M5A 3L2,43.643251,-79.351572,3.5,88,1,"Specialty Food, Grocery, Food, Ethnic Food, International Grocery, Imported Food"
QTSCFDPcuROE8UCvGS8Fiw,Ho Su Bistro,Queen Street West,254 Queen St W,Toronto,ON,M5V 1Z8,43.650053,-79.3914456,3,159,0,"Restaurants, Korean, Japanese"
NT9FIulqDRBKXn_R8FRPew,Petview,Queen Street West,252 Queen Street W,Toronto,ON,M5V 2E5,43.6500663,-79.3913874,4.5,15,0,"Pet Stores, Pets"
efKt0pS0d83aJ5KXupy16Q,Elite Music Academy,Greektown,822 Danforth Ave,Toronto,ON,M4J 1L6,43.6798158,-79.3411574,4,4,1,"Private Tutors, Musical Instruments & Teachers, Shopping, Education"
DDhRI_GvC0svSyTi3AHBqg,Eric Del Monaco Hair Studio,Entertainment District,388 Richmond Street W,Toronto,ON,M5V 3P1,43.6481029,-79.394857,4,10,1,"Beauty & Spas, Hair Salons"
hsgtedqml9ZDB2cbTZe_mA,Tim Hortons,St. Lawrence,73 Front St E,Toronto,ON,M5E 1B8,43.6486942,-79.3731313,3,5,0,"Donuts, Coffee & Tea, Food"
h5TdULM3nc6IoqY4yOdZqg,Sushi 101,,513 Bloor St W,Toronto,ON,M5S 1Y4,43.6654118,-79.4087897,2.5,12,0,"Restaurants, Japanese"
kOFDVcnj-8fd3doIpCQ06A,Mildred's Temple Kitchen,Liberty Village,85 Hanna Avenue,Toronto,ON,M6K 3S3,43.6399108749,-79.4204235077,4,630,1,"Venues & Event Spaces, Restaurants, Vegetarian, Breakfast & Brunch, American (New), Comfort Food, Canadian (New), Event Planning & Services"
4YJ-iVH75TJlGYe3VvIu5Q,Butterfly Bakery,Chinatown,492 Dundas Street W,Toronto,ON,M5T 1H1,43.6532509,-79.3974471,3,5,0,"Food, Bakeries"
wfrtGTvpP3uB_Q9g4CcEEA,Jason Lee Salon,Yonge and Eglinton,2470A Yonge Street,Toronto,ON,M4P 2H5,43.7113385,-79.3995385,3,4,1,"Hair Salons, Beauty & Spas"
996axDvF9P8zxB9MJA52Xg,Yuzu Izakaya,Willowdale,5582 Yonge Street,Toronto,ON,M2N,43.779040904,-79.415528141,4,26,0,"Tapas Bars, Bars, Nightlife, Japanese, Restaurants, Tapas/Small Plates"
dCRd0MAt1Oth3BEUFF08Dg,McDonald's,Downtown Core,181 Bay Street,Toronto,ON,M5J 2S1,43.6472616,-79.3785998,2,4,1,"Burgers, Breakfast & Brunch, Fast Food, Restaurants"
BS0GcQ1kUag8YJ2qcBH2lQ,Carens Wine and Cheese Bar,Yorkville,158 Cumberland Street,Toronto,ON,M5R 1A8,43.6698978,-79.3933731,3,68,0,"Bars, French, Wine Bars, Nightlife, Restaurants"
l5MKpZThwcinpNmv4lcBgg,Ducky's Roti,Etobicoke,3296 Lakeshore Blvd W,Toronto,ON,M8V 1M2,43.5966904,-79.5224927,3,17,1,"Restaurants, Caribbean"
0Hd64Cc6zNvZrZFZtuIuXA,We Win Or Its Free,,2292 Keele Street,Toronto,ON,M6M 3Z9,43.7030483,-79.4771003,5,3,1,"DUI Law, Lawyers, Criminal Defense Law, Personal Injury Law, Professional Services"
_Mmg1gn0Ka65iqC0wP93fQ,Alligator Party,Seaton Village,505 Dupont St,Toronto,ON,M6G 1Y6,43.6724582,-79.4159879,3,6,1,"Event Planning & Services, Party & Event Planning, Shopping"
Ed5EiltgiPVaIKPHILRd8g,Number Two Restaurant,Chinatown,416 Spadina Avenue,Toronto,ON,M5T 2G7,43.6562726,-79.3996306,4,4,0,"Chinese, Dim Sum, Restaurants"
gSBBG1cgz8pOvZgNahyP2A,M-Hair,Riverdale,590 Pape Avenue,Toronto,ON,M5J,43.6751041945,-79.3433475494,3.5,3,0,"Beauty & Spas, Hair Salons"
ETp63sOcqAPy6AFferHPcg,Gallery Hi Art,Downtown Core,516 Yonge Street,Toronto,ON,M4Y 1X9,43.6635233,-79.3841496,3.5,5,1,"Arts & Entertainment, Shopping, Art Galleries"
tRbs81emaSHuVaha5FOOlQ,The Wandering Healer,,35 Rains Avenue,Toronto,ON,M6G 3H4,43.6749706,-79.4248826,5,3,1,"Health & Medical, Physical Therapy, Home Health Care, Acupuncture"
vzHqc_5qf_aBramhKvdYcQ,Great Food Supermarket,,1400 Victoria Park Avenue,Toronto,ON,M4A 2L8,43.718877,-79.3001772,3.5,3,1,"Grocery, Shopping, Fashion, Department Stores, Food"
v0cl_1amwGypwFIS9-w8zw,Sobeys,Harbourfront,207 Queens Quay W,Toronto,ON,M5J 1A7,43.6393257553,-79.3805263371,3,22,1,"Specialty Food, Grocery, Food, Seafood Markets"
g14SuHGkIL-2pSWhRkSSlQ,Colaba Junction,Downtown Core,"801 Bay Street, Unit 3 & 4",Toronto,ON,M5S 1Y9,43.6610188,-79.3857011,3.5,42,1,"Sandwiches, Restaurants, Indian"
c-Ur4wPDNjt-e2N5MkRRaQ,Cha Lau Dim Sum,Downtown Core,476 Yonge Street,Toronto,ON,M4Y 1B4,43.6622620226,-79.3834938481,3,63,0,"Restaurants, Chinese, Dim Sum"
whyNu5Cl8gMiQkdWPzaDXQ,Famoso Neopolitan Pizzeria,,"3401 Dufferin Street, Unit R04",Toronto,ON,M6A 3A1,43.7247752,-79.4553801,3.5,30,0,"Pizza, Restaurants, Italian"
IPV-KGMLNvl3WRn1rFpk6w,Greenhouse Juice,Summer Hill,5 Macpherson Avenue,Toronto,ON,M5R 1W7,43.678934,-79.3907966,4.5,26,1,"Vegan, Health & Medical, Restaurants, Juice Bars & Smoothies, Nutritionists, Food, Gluten-Free"
8mjkbSWfr90Vg3MfBPlwUg,Liberty Preparatory School,Leslieville,24 Boston Avenue,Toronto,ON,M4M,43.6620515,-79.3391134,1,3,1,Education
DQLeq7Rmu8ZvtJxUolikDg,Evolve Chiropractic,High Park,"437 Roncesvalles Avenue, Unit 105",Toronto,ON,M6R 3B9,43.6525561,-79.4511385,5,7,1,"Massage, Health & Medical, Physical Therapy, Beauty & Spas, Massage Therapy, Chiropractors"
KuxDPl6UYNLxFChPm0_MNw,Brownstone Bistro,Church-Wellesley Village,603 Yonge Street,Toronto,ON,M4Y 1Z5,43.6667137,-79.3851366,3.5,157,1,"Caterers, Event Planning & Services, Breakfast & Brunch, Italian, Restaurants"
b2UTiUd5aX8CukkZjfphHQ,Gerrard Square Shopping Centre,Leslieville,1000 Gerrard Street E,Toronto,ON,M4M 3G6,43.669144,-79.3391627,2.5,33,1,"Shopping Centers, Shopping"
MlwsOef4hDJVHWOzutE6yw,Cheese Garden,Willowdale,5291 Yonge Street,Toronto,ON,M2N 5R3,43.772806,-79.4134887,4,107,1,"Food, Cheese Shops, Specialty Food, Custom Cakes"
D5N-HTpwryAPGUK3wtxAjw,Athena Bakery,Greektown,598 Danforth Avenue,Toronto,ON,M4K 1R1,43.6788596,-79.3464719,4,23,1,"Food, Bakeries"
wMr1NZCfOp8rgDe6gUHoQg,The Grapefruit Moon,Seaton Village,968 Bathurst Street,Toronto,ON,M5R 3G6,43.6696811,-79.4132247,3.5,129,1,"Vegetarian, Burgers, Restaurants, Breakfast & Brunch"
RYrS9L8DupuwyHWYqeuayw,Greenwood Subway Station,The Danforth,Linnsmore Cres and Danforth Ave,Toronto,ON,M4J 1M8,43.6820237,-79.3297679,2.5,3,1,"Public Transportation, Transportation, Hotels & Travel"
nHdyPc-xqJiEt8566sYhYQ,Duotherapy,Milliken,,Toronto,ON,M1V,43.8152522,-79.2845772,5,5,1,"Physical Therapy, Health & Medical, Massage Therapy"
J4PPjgSevNfA4r1UyuoQxA,John Allan's,Downtown Core,"176 Yonge Street, 2nd Floor",Toronto,ON,M5C 2L7,43.6517906,-79.3801688,3,6,1,"Beauty & Spas, Barbers"
fnD9TymuJHE_xcKcNjFDfw,Paper Ideas,Deer Park,1560 Yonge Street,Toronto,ON,M4T 2S9,43.6894573,-79.3950643,3,4,1,"Shopping, Flowers & Gifts, Printing Services, Local Services"
ryEwIARbKHvb0lCkAam8dQ,Sud Forno,Downtown Core,132 Yonge Street,Toronto,ON,M5C 1X3,43.6509163401,-79.3787852302,3.5,95,1,"Italian, Bakeries, Restaurants, Food, Coffee & Tea"
AtpYrfIJJuSMc8h2fWQEIw,Wong's Ice Cream & Store,Riverdale,617 Gerrard Street E,Toronto,ON,M4M 1Y2,43.6655348,-79.351139,4.5,76,1,"Ice Cream & Frozen Yogurt, Food, Desserts"
_hlNVsSGc2R9wT_cNBbFoQ,Mister Yummy,,2340 Dundas Street W,Toronto,ON,M6P 4A9,43.657278,-79.45193,3.5,14,1,"Restaurants, Korean, Fast Food"
o7io7ITyHfjXOpxIktL0Bg,Luce Restaurant,Niagara,791 King Street W,Toronto,ON,M5V 1N4,43.6430561,-79.4068177,4,24,0,"Restaurants, Pizza, Tapas Bars, Italian, Sandwiches, Salad"
SmxDu4p7JfdkdbzuVwE6Zw,Kate Spade,Yorkville,138 Cumberland Street,Toronto,ON,M5R 3N7,43.670135,-79.3923089,3,9,1,"Fashion, Leather Goods, Shopping, Jewelry"
7-jI4XHEbroSNX_caGR0Qw,King's Landing,,396 College Street,Toronto,ON,M5T 1S7,43.6569876326,-79.4059632926,3.5,19,1,"Barbers, Beauty & Spas"
ewsX9hB-gLEQMLdAdqA_9g,Wildhagen Hat Shop,Downtown Core,,Toronto,ON,,43.653226,-79.3831843,4,4,1,"Shopping, Hats, Accessories, Fashion"
t2eQcHc7WIlyKK8zFtY2Kw,Quesada Burritos & Tacos,Entertainment District,234 Wellington Street W,Toronto,ON,M5V 3W1,43.6453248,-79.3898137,3,28,1,"Restaurants, Mexican"
A7ZXpnQGrQDFJfHZHIl34w,H & M,Queen Street West,427-429 Queen Street W,Toronto,ON,M5V 2A5,43.6487565833,-79.3956021198,2.5,22,1,"Accessories, Shopping, Women's Clothing, Men's Clothing, Fashion"
JFX1lf5vxJAMzAGJV_MMjQ,Subway,Downtown Core,"45 Carlton Street, Unit 7",Toronto,ON,M5B 2H9,43.6613863,-79.3806045,1.5,4,1,"Fast Food, Restaurants, Sandwiches"
U4rP8K1YkQwq55BF_c3Kug,Shanti Baba,Alexandra Park,546 Queen Street W,Toronto,ON,M5V 2B5,43.6476094,-79.4028854,4.5,10,1,"Flowers & Gifts, Hobby Shops, Jewelry, Gift Shops, Tobacco Shops, Vape Shops, Shopping"
Ut4my3Bft_62o_LlLN5OsQ,Felichia Bridal,Little Italy,601 College Street,Toronto,ON,M6G 1B5,43.655162,-79.41419,3.5,37,1,"Fashion, Women's Clothing, Shopping, Bridal"
XpOdd54aW43-_iLtyNmO0A,Custom Coaches,,78 Miller Street,Toronto,ON,M6N 2Z9,43.6692536,-79.4604575,2.5,3,1,"Auto Repair, Automotive, Body Shops"
EsCSATOT6Nu2lThGbJCc0A,Antech Hair and Skin Clinics,Yorkville,"1240 Bay Street, Suite 200",Toronto,ON,M5R 2A7,43.6702995,-79.3901641,2,6,1,"Health & Medical, Hair Removal, Beauty & Spas, Skin Care, Laser Hair Removal, Day Spas, Medical Spas"
2MMRdPAQDI_6VYQUdIjSzg,Xococava,Deer Park,1560 Yonge Street,Toronto,ON,M4T 2S9,43.6896565,-79.3948507,4,23,0,"Desserts, Restaurants, Food, Canadian (New)"
mRLuwU5Fs5OnKYXpCKp-NQ,Greenfield Eye Clinic,Willowdale,20 Greenfield Avenue,Toronto,ON,M2N 3C8,43.7635887,-79.4107846,4,3,1,"Health & Medical, Eyewear & Opticians, Shopping, Optometrists"
p-fYzN2TAapc0uJHg3RTwA,City Cloud,Corso Italia,1382 Saint Clair Avenue W,Toronto,ON,M6E 1B5,43.67742,-79.444752,5,3,1,"Electronics, Electronics Repair, Mobile Phone Repair, Local Services, Shopping, IT Services & Computer Repair"
6pwgCDyAm7QdhuyA2s-zUQ,Adidas,Queen Street West,389 Queen Street W,Toronto,ON,M5V 2A5,43.6490502,-79.3942659,3,3,1,"Shoe Stores, Fashion, Sports Wear, Shopping, Sporting Goods"
Fgt70HjHhw5IVYNYulsAng,Crepe it Up,Leslieville,1000 Gerrard,Toronto,ON,M4M 3G6,43.6688041,-79.3389132,2.5,6,0,"Food, Restaurants, Coffee & Tea, Food Stands, Desserts"
O2sWP1zWWHGNVAB96DjN6Q,Burberry,Yorkville,144 Bloor St W,Toronto,ON,M5S,43.6690483,-79.3931533,4,8,1,"Shopping, Fashion"
fjta0a2h-LYWOWBgJGVpwg,Thai Shan Inn,,2404 Dufferin Street,Toronto,ON,M6E 3S8,43.6969621382,-79.4510810184,3,31,1,"Restaurants, Thai"
kMQR1D7VL6X5rYGXspQTsA,Black Photo Corporation,Bloor-West Village,2228 Bloor Street W,Toronto,ON,M6S 1N6,43.6510654,-79.4766404,2,3,0,"Hobby Shops, Photography Stores & Services, Shopping"
kCmUTthR2Z7O7wtUqZGXug,Organic Oven Bakery and Cafe,,3189 Yonge Street,Toronto,ON,M4N 2L1,43.7276351,-79.4027303,3.5,7,0,"Restaurants, Cafes"
NLC1Z0migdLKiENGtzgRbA,Advanced Beauty Clinic,Yonge and Eglinton,"2354 -A  Yonge Street, Unit 1",Toronto,ON,M4P 2E6,43.7085774,-79.3990767,5,3,0,"Hair Removal, Skin Care, Beauty & Spas, Day Spas"
8qsZdSaHko5D6HfG4rPNUw,Hi! There,Koreatown,599 Bloor Street W,Toronto,ON,M6G 1K5,43.6646194,-79.4129707,4,10,0,"Restaurants, Korean"
H2gXfJQXltAqnpEwc58Img,Kung Fu Tea,Chinatown,264 Spadina Avenue,Toronto,ON,M5T 2E4,43.652108,-79.397971,4,44,1,"Bubble Tea, Food"
_YzvyyudPRtIZkWE1Jmt_g,Cafe Supreme,Financial District,222 Bay Street,Toronto,ON,M5J,43.6475927,-79.3798855,4,3,0,"Breakfast & Brunch, Coffee & Tea, Event Planning & Services, Restaurants, Food, Caterers"
aervNtqzrKf0CGrFo4xfKw,Le Papillon Park,Leslieville,1001 Eastern Ave,Toronto,ON,M4L 1A8,43.6635059,-79.3199295,3.5,49,0,"French, Restaurants, Canadian (New)"
68CgU5QQxJRajcoWmC6Nyg,La Femme Strong,,794 Broadview Avenue,Toronto,ON,M4K 2P7,43.6773848,-79.3588326,5,4,1,"Active Life, Gyms, Trainers, Pilates, Fitness & Instruction"
ftvZ6BVmbZndKcVPEdakIQ,Arepa Café,Alexandra Park,490 Queen Street W,Toronto,ON,M5V 2B3,43.6479538471,-79.4008710352,4,235,1,"Food, Salad, Restaurants, Latin American, Desserts, Venezuelan"
00cZ-qwff0qcsg9G5ZBoIg,Los Cafetaleros,Bickford Park,774 College Street,Toronto,ON,M6G 1C6,43.6549359546,-79.4205810875,4.5,4,0,"Coffee & Tea, Food"
W39NnaleWnUAWUaiVm__Pw,Anthony Passero Salon,Yorkville,114 Cumberland Street,Toronto,ON,M5R 1A6,43.6703043,-79.3915581565,5,14,1,"Beauty & Spas, Hair Salons"
ebCjCmlO_M8ZFfyDr-s3hQ,Sukoshi Mart,Kensington Market,"160 Baldwin Street, Store 7B",Toronto,ON,M5T 3K7,43.6548674919,-79.4002734254,3.5,28,1,"Food, Convenience Stores"
ZyYWnUbopxby-dW4eOovxw,Ritz Caribbean Foods,Yonge and Eglinton,32 Eglinton Avenue W,Toronto,ON,M4R 2H1,43.7065804,-79.3997742,3.5,54,1,"Restaurants, Caribbean"
V4bhr2YpNO1al-n9rGyIPw,The Beach House Bar & Grill,The Beach,1953 Queen Street E,Toronto,ON,M4L 1H7,43.669426,-79.302503,4,12,1,"Beer, Wine & Spirits, Food, Seafood, Breakfast & Brunch, Bars, Nightlife, Restaurants"
VdV43zpCxgDpgtZ-dAfnAQ,Ultra Violet Pole Fitness,,"801 Eglinton Avenue W, Suite 200",Toronto,ON,M5N 1E3,43.7009978,-79.4243784,5,3,1,"Fitness & Instruction, Active Life"
sJ0MYSAIVK28cMzh-s-NPA,Amaya Express,Downtown Core,"Eaton Centre, 220 Yonge St",Toronto,ON,M5B 2L7,43.6540667,-79.3800815,2.5,39,1,"Fast Food, Restaurants, Indian"
iyPtSR0s6EkvaQFbdJ_jVA,Pearl King,Entertainment District,291 King Street W,Toronto,ON,M5V 1J5,43.6464782,-79.3900189,2.5,72,1,"Restaurants, Dim Sum, Chinese, Tapas/Small Plates"
CUPaXY7Nhei-Ke9P7pHCkg,Wibke's Espresso Bar,Swansea,2465 Bloor Street W,Toronto,ON,M6S 1P7,43.6489897,-79.4847183,3.5,19,0,"Food, Coffee & Tea"
KTzleyVkocM474dA-o-ovA,Spring Nails and Spa,Koreatown,644 Bloor Street W,Toronto,ON,M6G 1L2,43.6643801,-79.4151877,3,39,1,"Nail Salons, Beauty & Spas"
rCCaHSKviG_-Nd-eStE3hw,Design Within Reach,Corktown,214 King St. E,Toronto,ON,M5A 1J7,43.6513945,-79.3688191,2.5,15,1,"Home Decor, Home & Garden, Shopping, Furniture Stores"
qEiJ_phSqBM9FSRMeI9AYA,Wilket Creek Park,,1121 Leslie St,Toronto,ON,M3C 2K1,43.7225348,-79.3488465,4.5,3,1,"Active Life, Parks"
FljFIiPgwqoLeE12wjosWA,Jacflash,West Queen West,1036 Queen Street W,Toronto,ON,M6J 1H7,43.6441284,-79.4203213,3.5,3,1,"Shopping, Fashion, Men's Clothing, Women's Clothing"
47BN7tByFRfvv2FVz_BuzQ,Kromer Radio,Kensington Market,420 Bathurst Street,Toronto,ON,M5T 2S6,43.6544329,-79.4068965,3,8,0,"Car Stereo Installation, Shopping, Automotive, Electronics"
_u1Bq7QsgMUXSMex8QHqLQ,Burrito Boyz,Entertainment District,224 Adelaide Street W,Toronto,ON,M5H 1W7,43.648702,-79.388077,4,375,1,"Restaurants, Mexican, Tex-Mex"
x7tPY3dlHueXcVz47dlW3Q,Nearly Naked,West Queen West,920 Queen Street W,Toronto,ON,M6J 1G6,43.6449043,-79.415742,4,4,0,"Fashion, Lingerie, Shopping"
rTVIfqqp5XEPfABT0QJ8Ng,Gyan Hot Yoga,Brockton Village,1561 Dundas Street W,Toronto,ON,M6K 1T9,43.649502,-79.4338628,3.5,11,1,"Yoga, Weight Loss Centers, Health & Medical, Fitness & Instruction, Active Life"
pdp1v-CB5qAnlyp88gFTlg,260 Wellesley Residences,,260 Wellesley Street E,Toronto,ON,M4X 1G6,43.6691288,-79.3717666,1,4,1,"Home Services, Apartments, Property Management, Real Estate"
ZxWf4iTEBMVJmI9HTuwv2Q,M Nails,Riverdale,117 Danforth Avenue,Toronto,ON,M4K 1N2,43.6762111,-79.3579086,4,49,1,"Day Spas, Beauty & Spas, Nail Salons"
WRU5TZiDz4FP4bvtx44fsQ,iRepex,,6030 Yonge Street,Toronto,ON,M2M 3W5,43.7897756,-79.4180402,4,6,1,"Shopping, Local Services, Electronics Repair, IT Services & Computer Repair, Electronics, Mobile Phone Repair"
RWYQMss0RzbtDGGwRI3iaQ,Chimichanga Mexican Grill & Tequila Bar,Yonge and Eglinton,2360 Yonge St,Toronto,ON,M4P 2E6,43.7086854,-79.3989062,2.5,28,0,"Restaurants, Nightlife, Mexican, Bars"
hUalWNTIj6dR80xJjboJ1w,United States Consulate General,Downtown Core,360 University Avenue,Toronto,ON,M5G 1S4,43.6527754,-79.3879109,4,10,1,Public Services & Government
kdZNk8DXdTmU_zDcBEzkkg,Jack Layton Ferry Terminal,Harbourfront,9 Queen's Quay W,Toronto,ON,M5J 2V3,43.6410713937,-79.3767769262,3.5,8,1,"Transportation, Hotels & Travel"
DhvkVOnDDWwL-AXYtxIFgQ,Baskin Robbins,,6212 Yonge Street,Toronto,ON,M2M 3X4,43.7946026,-79.4192038,4.5,6,1,"Ice Cream & Frozen Yogurt, Custom Cakes, Desserts, Food"
2MbeS6uDOoxugs3B6ASCbA,Three Fates,Parkdale,1394 Queen Street W,Toronto,ON,M6K 1L7,43.6412795,-79.4338747,5,4,1,"Fashion, Accessories, Women's Clothing, Shopping, Used, Vintage & Consignment"
INRkSdAPW2WUjVSdEPZa8A,Papaya Restaurant,Church-Wellesley Village,545 Yonge St,Toronto,ON,M4Y 1Y5,43.6646122,-79.3842879,3.5,63,0,"Restaurants, Thai"
iomyYWs9m6-SucLAcY3WTg,Michelle's Brasserie,Yorkville,162 Cumberland Street,Toronto,ON,M5R 3N5,43.6698409,-79.3936115,3.5,3,0,"Restaurants, French"
6fn7wDZ2FzteSKnJ-u2R6g,Sleep Country,Greektown,745 Danforth Avenue,Toronto,ON,M4J 1L4,43.6791334,-79.3425512,2.5,3,1,"Mattresses, Furniture Stores, Shopping, Home & Garden"
S8uOotWjk_ZmM5JIJCHKpw,Izzy Fitness,Yorkville,"91 Scollard Street, Unit 1",Toronto,ON,M5R 1G2,43.6717973,-79.3915848,2.5,3,1,"Gyms, Pilates, Fitness & Instruction, Dance Studios, Active Life"
nbt7KAx34hu1zBHr-2PNTg,Come As You Are Co-operative,Swansea,2-6 Ripley Avenue,Toronto,ON,M6S 3N9,43.6373037,-79.4748088,4.5,21,1,"Shopping, Electronics, Books, Mags, Music & Video, Bookstores, Adult, Music & DVDs"
HqaZ1o4ftw2da7dEc-2fww,Marshalls,,23 Brentcliffe Road,Toronto,ON,M4G 4H7,43.7140116,-79.3589588,2.5,10,1,"Men's Clothing, Fashion, Accessories, Department Stores, Shopping, Women's Clothing"
SrnFpeMfMB40Rd6Z9N1lbg,Home Sweet Home,,1 Whitehorse Road,Toronto,ON,M3J 3A7,43.7552182,-79.4685428,4.5,3,1,"Restaurants, Mediterranean, Turkish, Halal"
oAbijgwy0UegXwntPuw5eQ,University of Toronto Health Service,University of Toronto,"University of Toronto, 214 College St, Fl 2",Toronto,ON,M5T 3A1,43.6590167,-79.3969244,3,7,1,"Health & Medical, Medical Centers"
S24zkRnTBxIbXJ1kBRXCtw,Mamma's Pizza,Greektown,507 Av Danforth,Toronto,ON,M4K 1P5,43.677971,-79.3489099,2,8,1,"Pizza, Italian, Sandwiches, Restaurants"
hbculKnTyMBeMQgN3j0QxQ,SoftMoc,Downtown Core,"Eaton Centre, 218 Yonge St",Toronto,ON,M5B 2H6,43.6535342,-79.3799716,1.5,14,1,"Shoe Stores, Fashion, Shopping"
RLoGMJAAzyeRpXpO9O71kw,Jack of Sports Inc.,,79 Strathallan Boulevard,Toronto,ON,M5N 1S8,43.7141074,-79.4148391,3,4,1,"Swimming Lessons/Schools, Specialty Schools, Education, Active Life, Fitness & Instruction, Summer Camps"
Fs4VBZ3zrwWmACSJfEL90w,Panago Pizza,Palmerston,787 Bathurst Street,Toronto,ON,M5S 0B7,43.6647766,-79.4109294,5,5,1,"Restaurants, Salad, Pizza, Chicken Wings"
Zmw9EpZuTq2yQjZ0cwwYAA,Corktown Dental Centre,Corktown,"184 Front Street E, Suite 101",Toronto,ON,M5A 4N3,43.6508099185,-79.3669820994,5,3,1,"Orthodontists, Dentists, Cosmetic Dentists, General Dentistry, Health & Medical"
Nqjig71Pc0hUz5LafqmETw,The Keg Steakhouse + Bar,Etobicoke,25 The West Mall,Toronto,ON,M9C 1B8,43.6130306975,-79.5594561473,4,41,1,"Nightlife, Restaurants, Bars, Steakhouses"
6xFq6d6gMcGY0kuVKqoAug,Nurture Birth Doula Care,Leslieville,,Toronto,ON,M4M,43.6595255,-79.340923,5,3,1,"Specialty Schools, Education, Health & Medical, Parenting Classes, Doulas"
7SJqn--2jmAukNgZ47qmnA,Yorkdale Volkswagen,Downsview,600 Wilson Avenue,Toronto,ON,M3K,43.732711,-79.4577197,3.5,9,1,"Automotive, Car Dealers"
hTAlyYOgJXQ_6UrXMLDHhg,Motorcycle Towing Toronto,,,Toronto,ON,M4B 1Y2,43.7117978,-79.3138108,5,5,1,"Towing, Motorcycle Repair, Automotive"
88Ktzlej575IGDFiTOxX9A,ANZ GOURMET BURGERS,Etobicoke,182 Royal York Rd,Toronto,ON,M8V 2V6,43.6111873888,-79.4964782705,2.5,3,1,"Restaurants, Burgers"
5gQhXemXe_dJX3eMRpyfNQ,Pho Hoa Restaurant,Scarborough,4271 Sheppard Avenue E,Toronto,ON,M1S 2B7,43.785886,-79.2761558,2.5,17,0,"Vietnamese, Restaurants, Professional Services, Life Coach"
EsB1S-VX92u5Wmg9JHWcBg,Marshalls,Ryerson,"382 Yonge Street, 3rd Floor",Toronto,ON,M5B 1S8,43.6590888,-79.3821131,3.5,30,1,"Fashion, Department Stores, Shopping"
1yAUftiOsCEkZ4B1UsdxRQ,Anima Trattoria and Wine Bar,Etobicoke,666b The Queensway,Toronto,ON,M8Y 1K7,43.6274318,-79.4984186,5,4,1,"Bars, Wine Bars, Nightlife, Italian, Restaurants"
dm2qhNgxjKGE9GvcfSPD2Q,Hendriks Restaurant & Bar,Downtown Core,218 Yonge Street,Toronto,ON,M5B 2H6,43.6555365,-79.3809338,3.5,25,1,"Restaurants, Bars, Nightlife, American (Traditional), Steakhouses, Lounges"
hh11bSKvaCtzoyF-w_m2Hg,Irene's Studio,,201 Wicksteed Avenue,Toronto,ON,M4G 0B1,43.7125382,-79.3518957,4,5,1,"Local Services, Sewing & Alterations"
bCUtviPBUJORqBrfn7X-rA,Dizengoff,,"401 Magnetic Drive, Unit 39-40",Toronto,ON,M3J 3H9,43.7831136577,-79.4732633606,4,3,1,"Mediterranean, Sandwiches, Salad, Falafel, Restaurants"
O5vhV8rQi8Vr4TY4vKHsKA,Redfish,Dufferin Grove,890 College Street,Toronto,ON,M6H 1A3,43.6539846,-79.4250379,4,19,0,"Restaurants, Seafood, Breakfast & Brunch"
G5VuWVbyVgFydZ_XaT6Oqw,Carbon Café,Downtown Core,96 Spadina Ave,Toronto,ON,M5V 2J6,43.6464132,-79.3958739,4,4,0,"Food, Coffee & Tea"
bAPjkuNJ67j2F4C5HQQHhQ,Kori Sushi,,3307 Bayview Avenue,Toronto,ON,M2M 3R7,43.7917876685,-79.3924355362,4,46,0,"Restaurants, Japanese, Korean"
2jKAtE0w-Qz5toCsgrSSHQ,Bad Dog Theatre,Bickford Park,875 Bloor Street  W,Toronto,ON,M6G 1M5,43.6620346,-79.425032,4,15,1,"Specialty Schools, Comedy Clubs, Arts & Entertainment, Nightlife, Education, Performing Arts"
N5ODTHBMLxTYZndi-ftTFg,Bero restaurant,Leslieville,889 Queen Street E,Toronto,ON,M4M 1J6,43.660522,-79.3424116,4,16,0,"Modern European, Restaurants, Spanish, Mediterranean"
kN3k8ssOs1Bo7xTtQkpBDg,Fresco's Fish & Chips,,816 St Clair Avenue W,Toronto,ON,M6C 1B6,43.6808548,-79.4305171,4,25,0,"Chicken Wings, Fish & Chips, Restaurants, Sandwiches"
EBa7-48XiJMmbbZ7VDhrjg,Shoppers Drug Mart,The Danforth,1630 Danforth Ave,Toronto,ON,M4C 1H6,43.6839564,-79.322268,3.5,12,1,"Drugstores, Shopping"
jqsj8FQUa2w6G1XN4Gqrpg,Olive Kebab Restaurant,New Toronto,2836 Lake Shore Boulevard W,Toronto,ON,M8V 2Y6,43.6016854,-79.5017682,4.5,14,1,"Restaurants, Mediterranean, Kebab"
0Zxeuxnutzsfe6V_VC5-wQ,MP Auto Body & Repair,The Junction,490 Quebec Avenue,Toronto,ON,M6P 2V7,43.6659259,-79.4724412,5,10,1,"Auto Repair, Auto Glass Services, Automotive, Body Shops"
Uhp3YoKkr1QOpLcwSVIFAg,Coppa's Fresh Market,,4750 Dufferin Street,Toronto,ON,M3H,43.7780827,-79.4691434,3.5,12,1,"Grocery, Food"
TCvqMYuw3FpWjhkS0Dq3UA,Lettuce Knit,Kensington Market,86 Nassau Street,Toronto,ON,M5T 1M5,43.6551129,-79.4033802,3.5,14,0,"Knitting Supplies, Shopping"
KUqInLEY1y7SkyZyDoGn0Q,Paradise Fine Chinese Dining,,5505 Leslie Street,Toronto,ON,M2H 3B6,43.7912048303,-79.3677110474,3,76,1,"Dim Sum, Chinese, Restaurants"
dHI6YDCDuU5X9tS-3y0Bcg,Hitch,Leslieville,1216 Queen Street E,Toronto,ON,M4M,43.6632716476,-79.3307532369,3.5,20,1,"Nightlife, Bars"
bD5sbDj_lMYnyUpbG3xm3Q,Starbucks,Etobicoke,1564 Royal York Road,Toronto,ON,M9P 3C4,43.6962438,-79.5327659,3,4,1,"Coffee & Tea, Food"
xfbjRpE3yhRQ9Zw-D_mBgQ,Nunu Ethiopian Fusion,Beaconsfield Village,1178 Queen Street W,Toronto,ON,M6J 2J5,43.642969,-79.4257048,4,76,1,"Ethiopian, Restaurants"
CyQXHdumQvxKAkXglORTdQ,Number One,East York,897 Pape Avenue,Toronto,ON,M4K 3T9,43.6846718,-79.3467867,2,3,1,"Restaurants, Chinese"
naIpNYbkw1RwzUjwIl7v5g,The Anndore House,Church-Wellesley Village,15 Charles Street E,Toronto,ON,M4Y 1S1,43.6684707,-79.3853152,4.5,3,1,"Hotels & Travel, Event Planning & Services, Hotels"
mIJXlV6brL3l7JGCsKUOAQ,Reingewirtz Paint,Downtown Core,107 Baldwin Street,Toronto,ON,M5T 1L5,43.6551673,-79.3966849,4,4,1,"Hardware Stores, Paint Stores, Home & Garden, Shopping"
-EV44odn1IVtyo4pNkH83A,Wynn Fitness Clubs - Downtown Toronto,St. Lawrence,98 The Esplanade,Toronto,ON,M5E 2E9,43.647696,-79.3725648,3,23,1,"Gyms, Active Life, Health & Medical, Physical Therapy, Fitness & Instruction"
09RUPz3SuUMtha65nUH3_g,Taste of Mediterranean,St. Lawrence,115 Front Street E,Toronto,ON,M5A 4S5,43.6494762,-79.3707486,1.5,6,0,"Greek, Restaurants, Mediterranean, Middle Eastern"
-IlQvDjwqOnA0iqlbmWX-Q,Le Plato,Greektown,"785 Danforth Avenue, Unit B",Toronto,ON,M4J 1L2,43.6793687,-79.3416048,5,4,1,"Restaurants, African"
KI0zM8wA3QH0-cHcvuz3PA,Village Playhouse,Bloor-West Village,2190 Bloor Street W,Toronto,ON,M6S 1N3,43.6517782,-79.474695,4.5,3,1,"Arts & Entertainment, Cinema, Performing Arts"
nOKGpVpeANUX-jgAJHWfzw,Armin Auto Sales,Etobicoke,1285 The Queensway,Toronto,ON,M8Z 1S1,43.6207736,-79.5258525,2.5,3,1,"Car Dealers, Automotive"
4nOFzonin3g2kg9kph7aIQ,Garrison Bespoke,St. Lawrence,"26 Wellington Street E, Suite 101",Toronto,ON,M5E 1S2,43.6483334,-79.3758108,3.5,3,1,"Local Services, Formal Wear, Shopping, Fashion, Accessories, Bespoke Clothing, Sewing & Alterations, Men's Clothing"
OKUr2j1XwSwrCAiXzX5oFw,Madinah Grill,Scarborough,"2680 Lawrence Avenue E, Suite  5",Toronto,ON,M1P 4Y4,43.7524465,-79.2622936,3.5,9,1,"Restaurants, Indian, Halal"
AawSB_EpIDOWDYhTKhHawQ,Azan's Beauty Salon,Yorkville,126 Davenport Rd,Toronto,ON,M5R 1H9,43.6749743,-79.3930941,4.5,3,1,"Hair Salons, Beauty & Spas"
smue4-Y0tvOgBCwD7y1-yA,Pet Social,,22 Bathust Street,Toronto,ON,M5V 0G8,43.6375015,-79.4005494,3.5,3,1,"Pet Sitting, Pet Stores, Pet Services, Pets, Pet Training, Pet Boarding, Pet Groomers"
XNdrlPbsSa1EL-n_i020kg,Noir Coffee & Tea,Wychwood,701 Saint Clair Avenue W,Toronto,ON,M6C 1B2,43.6813507,-79.4262009,3.5,39,0,"Food, Coffee & Tea"
PxNlfFHLRVGKqpN7-vXBTQ,Starbucks,Greektown,604 Danforth Ave,Toronto,ON,M4K 1R1,43.6788798,-79.3463577,3,14,1,"Food, Coffee & Tea, Restaurants, Cafes"
9JCjKd6eFXsAMVwouTh_4Q,Bath and Body Works,Scarborough,1900 Eglintion Ave E,Toronto,ON,M1L 2L9,43.7271887,-79.2930079,4,5,1,"Shopping, Cosmetics & Beauty Supply, Beauty & Spas"
Jd3HLhTpUTUC23Tv1vBR6w,St Lawrence Hardware,St. Lawrence,130 Lower Sherbourne Street,Toronto,ON,M5A 4J4,43.6497525,-79.3677167,1.5,10,1,"Home & Garden, Hardware Stores, Shopping"
FOMPEDx1Y4yw8Zyeww9zJQ,Subway,Church-Wellesley Village,607 Yonge Street,Toronto,ON,M4Y 1Z5,43.6668173,-79.3852101,2,5,1,"Fast Food, Sandwiches, Restaurants"
JVC_vakyh-aA7sa-AI7G-g,Lucky Nails,Yorkville,23-101 Yorkville Avenue,Toronto,ON,M5R 1C1,43.6706528,-79.3923967,2.5,15,1,"Beauty & Spas, Nail Salons"
ioZqhYb-Ew7uobiVHb_Tlg,Bellair Tan,Downtown Core,675 Yonge Street,Toronto,ON,M4Y 2B2,43.668648,-79.38607,4.5,4,0,"Tanning, Beauty & Spas"
g7EMn2tfrmAKBW9rQQeeEw,Ladan Pastry & Bakery,Scarborough,2016 Lawrence Avenue E,Toronto,ON,M1R 2Z1,43.7450761,-79.2961617,4,4,0,"Food, Restaurants, Persian/Iranian, Bakeries"
bah3voBeGkH6pqYKQMUlMQ,Maid4Condos,Liberty Village,"60 Atlantic Avenue, Suite 200",Toronto,ON,M6K 1X9,43.6383714,-79.421133,4,10,1,"Professional Services, Home Cleaning, Home Organization, Office Cleaning, Home Services"
TwPd82uug0P8CPR7Q4p1AA,Punjabi Chaat Palace,Leslieville,Gerrard St E,Toronto,ON,,43.6708992,-79.3280776,3.5,3,1,"Indian, Restaurants"
Wkz2Ddi_Lk0K8Rjd6qK2AA,Toronto Health Centre,Downtown Core,"123 Edward Street, Suite 100, Ground Floor",Toronto,ON,M5G 1E2,43.655636,-79.386976,4.5,3,1,"Chiropractors, Health & Medical, Massage, Massage Therapy, Physical Therapy, Beauty & Spas"
F2ms2jtu6rmgtCNytJ0rkg,Edo Japan,Downtown Core,161 Bay Street,Toronto,ON,M5J 2S1,43.6466166,-79.3787611,3.5,4,1,"Restaurants, Japanese"
5ecBEnLsF75q706JlH1DUg,Black Rock Coffee,Koreatown,677 Bloor Street W,Toronto,ON,M6G 1L3,43.6638699152,-79.4163757834,4.5,27,1,"Coffee & Tea, Restaurants, Internet Cafes, Cafes, Food"
6YNEk7tjy7o5Uwt9y9RRLA,Paradise Farms Prime Beef Bistro,Bayview Village,678C Sheppard Avenue,Toronto,ON,M2K 3E7,43.7686572132,-79.3799060583,3.5,55,0,"Delis, Steakhouses, Diners, Canadian (New), Burgers, Restaurants, Cafes"
EWOGbBJEqPskjJsZdWy7lQ,Joseph J. Piccininni Community Recreation Centre,,1369 St Clair Ave W,Toronto,ON,M6E 1C5,43.6757354,-79.452238,4,6,1,"Recreation Centers, Active Life, Leisure Centers"
TnuL2q2mc7O_J73oVve7fw,Usher Animal Hospital,,29 Chaplin Crescent,Toronto,ON,M5P 1A2,43.6980067992,-79.3981289864,3.5,8,1,"Veterinarians, Pet Services, Pets"
OS5IyYEXgYV9_Z0iS4MkOw,Yip's Kitchen,St. Lawrence,"St. Lawrence Market, 92 Front Street E, Lower Level",Toronto,ON,M5E 1C4,43.6496845,-79.3719613,4,9,1,"Chinese, Canadian (New), Asian Fusion, Restaurants"
